propertyCode,thumbnail,externalReference,numPhotos,floor,price,propertyType,operation,size,exterior,rooms,bathrooms,address,province,municipality,district,country,neighborhood,latitude,longitude,showAddress,url,distance,hasVideo,status,newDevelopment,hasLift,priceByArea,suggestedTexts,hasPlan,has3DTour,has360,hasStaging,topNewDevelopment,newDevelopmentFinished,subTypology,hasParkingSpace,isParkingSpaceIncludedInPrice,codbar,coddistrit,codbarrio,barrio,distrito
93868909,https://img3.idealista.com/blur/WEB_LISTING/0/id.pro.es.image.master/6d/67/36/874359550.jpg,lm161734,32,5,690000,flat,sale,130.0,False,3,2,barrio Ibiza,Madrid,Madrid,Retiro,es,Ibiza,40.4190461,-3.6719441,False,https://www.idealista.com/inmueble/93868909/,3975,True,good,False,1.0,5308,"{'subtitle': 'Ibiza, Madrid', 'title': 'Piso'}",True,True,False,False,False,,,,,34.0,3.0,3-4,Ibiza,Retiro
93242574,https://img3.idealista.com/blur/WEB_LISTING/0/id.pro.es.image.master/7d/4f/80/862966318.jpg,MV3938I,51,2,1220000,flat,sale,190.0,True,4,3,barrio Almagro,Madrid,Madrid,Chamberí,es,Almagro,40.4366359,-3.6930641,False,https://www.idealista.com/inmueble/93242574/,1481,True,renew,False,1.0,6421,"{'subtitle': 'Almagro, Madrid', 'title': 'Piso'}",True,True,False,True,False,,,True,True,74.0,7.0,7-4,Almagro,Chamberí
92931772,https://img3.idealista.com/blur/WEB_LISTING/0/id.pro.es.image.master/cc/39/d9/873577332.jpg,V6573I,48,1,610000,flat,sale,100.0,True,2,2,Vereda de Palacio,Madrid,La Moraleja,Encinar de los Reyes,es,,40.5071821,-3.6425828,False,https://www.idealista.com/inmueble/92931772/,9397,True,good,False,1.0,6100,"{'subtitle': 'Encinar de los Reyes, La Moraleja', 'title': 'Piso en Vereda de Palacio'}",True,True,False,True,False,,,True,True,166.0,16.0,16-6,Valdefuentes,Hortaleza
93759548,https://img3.idealista.com/blur/WEB_LISTING/0/id.pro.es.image.master/83/6b/0a/871277468.jpg,GM 160949,48,1,568000,flat,sale,134.0,True,2,2,barrio Sol,Madrid,Madrid,Centro,es,Sol,40.4165027,-3.7025164,False,https://www.idealista.com/inmueble/93759548/,2688,True,good,False,1.0,4239,"{'subtitle': 'Sol, Madrid', 'title': 'Piso'}",True,True,False,False,False,,,,,16.0,1.0,1-6,Sol,Centro
93591362,https://img3.idealista.com/blur/WEB_LISTING/0/id.pro.es.image.master/6b/c3/f2/868146034.jpg,AS 159887,34,1,800000,flat,sale,139.0,True,3,2,barrio Malasaña-Universidad,Madrid,Madrid,Centro,es,Malasaña-Universidad,40.4223289,-3.7079328,False,https://www.idealista.com/inmueble/93591362/,1972,True,good,False,0.0,5755,"{'subtitle': 'Malasaña-Universidad, Madrid', 'title': 'Piso'}",True,True,False,True,False,,,,,15.0,1.0,1-5,Universidad,Centro
93415214,https://img3.idealista.com/blur/WEB_LISTING/0/id.pro.es.image.master/e6/9f/1c/870655211.jpg,EV155891,41,1,820000,flat,sale,171.0,True,4,3,Carretera del Mediodía,Madrid,La Moraleja,Encinar de los Reyes,es,,40.510626,-3.6556524,False,https://www.idealista.com/inmueble/93415214/,9099,True,good,False,1.0,4795,"{'subtitle': 'Encinar de los Reyes, La Moraleja', 'title': 'Piso en Carretera del Mediodía'}",True,True,False,True,False,,,True,True,166.0,16.0,16-6,Valdefuentes,Hortaleza
93183727,https://img3.idealista.com/blur/WEB_LISTING/0/id.pro.es.image.master/7a/c2/2e/869917370.jpg,MV159598,55,,1550000,chalet,sale,450.0,False,5,5,Camino de la Huerta,Madrid,La Moraleja,Encinar de los Reyes,es,,40.5060133,-3.6402651,False,https://www.idealista.com/inmueble/93183727/,9416,True,good,False,,3444,"{'subtitle': 'Encinar de los Reyes, La Moraleja', 'title': 'Chalet pareado en Camino de la Huerta'}",True,True,False,True,False,,semidetachedHouse,True,True,166.0,16.0,16-6,Valdefuentes,Hortaleza
92815301,https://img3.idealista.com/blur/WEB_LISTING/0/id.pro.es.image.master/58/59/d6/871779582.jpg,V6567I,60,2,1125000,penthouse,sale,312.0,True,5,6,Calle de Luis Martinez Feduchi,Madrid,La Moraleja,Encinar de los Reyes,es,,40.4993973,-3.6421561,False,https://www.idealista.com/inmueble/92815301/,8749,True,good,False,1.0,3606,"{'subtitle': 'Encinar de los Reyes, La Moraleja', 'title': 'Ático en Calle de Luis Martinez Feduchi'}",True,True,False,True,False,,penthouse,True,True,166.0,16.0,16-6,Valdefuentes,Hortaleza
93549441,https://img3.idealista.com/blur/WEB_LISTING/0/id.pro.es.image.master/ab/5d/cb/868998134.jpg,VP13144,42,5.0,3500000,flat,sale,427.0,True,5,3,barrio Castellana,Madrid,Madrid,Barrio de Salamanca,es,Castellana,40.433651,-3.6846933,False,https://www.idealista.com/inmueble/93549441/,2255,True,good,False,1.0,8197,"{'subtitle': 'Castellana, Madrid', 'title': 'Piso'}",True,True,False,False,False,,,True,True,46.0,4.0,4-6,Castellana,Salamanca
92273816,https://img3.idealista.com/blur/WEB_LISTING/0/id.pro.es.image.master/71/a3/18/850416143.jpg,MV3840I,68,4.0,1195000,penthouse,sale,200.0,True,2,2,barrio Nueva España,Madrid,Madrid,Chamartín,es,Nueva España,40.4597724,-3.6814776,False,https://www.idealista.com/inmueble/92273816/,3264,True,renew,False,1.0,5975,"{'subtitle': 'Nueva España, Madrid', 'title': 'Ático'}",True,True,False,True,False,,penthouse,True,True,55.0,5.0,5-5,Nueva España,Chamartín
91834529,https://img3.idealista.com/blur/WEB_LISTING/0/id.pro.es.image.master/12/9f/b2/850964950.jpg,MV3819I,48,1.0,748000,flat,sale,174.0,True,4,2,barrio El Viso,Madrid,Madrid,Chamartín,es,El Viso,40.4411838,-3.6802568,False,https://www.idealista.com/inmueble/91834529/,2520,True,renew,False,1.0,4299,"{'subtitle': 'El Viso, Madrid', 'title': 'Piso'}",True,True,False,True,False,,,True,True,51.0,5.0,5-1,El Viso,Chamartín
93716932,https://img3.idealista.com/blur/WEB_LISTING/0/id.pro.es.image.master/1d/a8/fb/874380631.jpg,AF160778,31,,930000,chalet,sale,385.0,False,5,5,barrio Peñagrande,Madrid,Madrid,Fuencarral,es,Peñagrande,40.47387,-3.72979,False,https://www.idealista.com/inmueble/93716932/,4121,True,good,False,,2416,"{'subtitle': 'Peñagrande, Madrid', 'title': 'Chalet adosado'}",True,True,False,False,False,,terracedHouse,True,True,83.0,8.0,8-3,Peña Grande,Fuencarral - El Pardo
93848274,https://img3.idealista.com/blur/WEB_LISTING/0/id.pro.es.image.master/88/f7/e2/873197144.jpg,cm-424527,42,4.0,1290000,flat,sale,213.0,True,4,2,barrio Almagro,Madrid,Madrid,Chamberí,es,Almagro,40.430661,-3.6981013,False,https://www.idealista.com/inmueble/93848274/,1446,True,good,False,1.0,6056,"{'subtitle': 'Almagro, Madrid', 'title': 'Piso'}",True,True,False,False,False,,,True,True,73.0,7.0,7-3,Trafalgar,Chamberí
93511001,https://img3.idealista.com/blur/WEB_LISTING/0/id.pro.es.image.master/65/4c/0b/865536712.jpg,VM2103053,40,4.0,1030000,flat,sale,234.0,True,4,3,barrio Vallehermoso,Madrid,Madrid,Chamberí,es,Vallehermoso,40.4404997,-3.7145637,False,https://www.idealista.com/inmueble/93511001/,390,True,renew,False,1.0,4402,"{'subtitle': 'Vallehermoso, Madrid', 'title': 'Piso'}",True,True,False,False,False,,,,,76.0,7.0,7-6,Vallehermoso,Chamberí
92461110,https://img3.idealista.com/blur/WEB_LISTING/0/id.pro.es.image.master/d4/c1/62/840200693.jpg,DS-P22315,52,1.0,1250000,flat,sale,147.0,True,3,2,Calle de Hermosilla,Madrid,Madrid,Barrio de Salamanca,es,Recoletos,40.4254052,-3.6870936,False,https://www.idealista.com/inmueble/92461110/,2528,True,good,False,1.0,8503,"{'subtitle': 'Recoletos, Madrid', 'title': 'Piso en Calle de Hermosilla'}",True,True,False,False,False,,,,,41.0,4.0,4-1,Recoletos,Salamanca
91064017,https://img3.idealista.com/blur/WEB_LISTING/0/id.pro.es.image.master/af/2a/c1/825864038.jpg,sm153308,41,5.0,370000,flat,sale,77.0,True,2,2,barrio Prosperidad,Madrid,Madrid,Chamartín,es,Prosperidad,40.4440685,-3.6708511,False,https://www.idealista.com/inmueble/91064017/,3343,True,good,False,1.0,4805,"{'subtitle': 'Prosperidad, Madrid', 'title': 'Piso'}",True,True,False,False,False,,,,,52.0,5.0,5-2,Prosperidad,Chamartín
93617273,https://img3.idealista.com/blur/WEB_LISTING/0/id.pro.es.image.master/c5/e1/b3/868143961.jpg,JL 159953,28,3.0,225000,flat,sale,45.0,False,1,1,barrio Palacio,Madrid,Madrid,Centro,es,Palacio,40.4076436,-3.713593,False,https://www.idealista.com/inmueble/93617273/,3610,True,good,False,1.0,5000,"{'subtitle': 'Palacio, Madrid', 'title': 'Piso'}",True,True,False,False,False,,,,,11.0,1.0,1-1,Palacio,Centro
93285608,https://img3.idealista.com/blur/WEB_LISTING/0/id.pro.es.image.master/b3/e8/35/865521719.jpg,AS 159217,35,4.0,225000,flat,sale,88.0,True,2,2,barrio 12 de Octubre-Orcasur,Madrid,Madrid,Usera,es,12 de Octubre-Orcasur,40.3652821,-3.6939761,False,https://www.idealista.com/inmueble/93285608/,8417,True,good,False,1.0,2557,"{'subtitle': '12 de Octubre-Orcasur, Madrid', 'title': 'Piso'}",True,True,False,True,False,,,,,123.0,12.0,12-3,San Fermín,Usera
93394969,https://img3.idealista.com/blur/WEB_LISTING/0/id.pro.es.image.master/e4/84/2d/862994404.jpg,MD159776,30,2.0,425000,flat,sale,80.0,True,3,2,Calle del Padre Francisco Palau y Quer,Madrid,Madrid,Chamartín,es,Castilla,40.4760663,-3.6866933,False,https://www.idealista.com/inmueble/93394969/,4468,True,good,False,1.0,5313,"{'subtitle': 'Castilla, Madrid', 'title': 'Piso en Calle del Padre Francisco Palau y Quer'}",True,True,False,False,False,,,,,85.0,8.0,8-5,La Paz,Fuencarral - El Pardo
93450398,https://img3.idealista.com/blur/WEB_LISTING/0/id.pro.es.image.master/de/3d/df/862989091.jpg,LR160504,43,6.0,1200000,flat,sale,181.0,True,3,2,Calle DE VIRIATO,Madrid,Madrid,Chamberí,es,Almagro,40.4370965,-3.6983981,False,https://www.idealista.com/inmueble/93450398/,1033,True,renew,False,1.0,6630,"{'subtitle': 'Almagro, Madrid', 'title': 'Piso en Calle DE VIRIATO'}",True,True,False,False,False,,,,,74.0,7.0,7-4,Almagro,Chamberí
93383798,https://img3.idealista.com/blur/WEB_LISTING/0/id.pro.es.image.master/68/19/3a/862149555.jpg,CA160056,32,4.0,325000,flat,sale,62.0,True,1,1,Plaza Luca de Tena,Madrid,Madrid,Arganzuela,es,Palos de Moguer,40.3998368,-3.6933925,False,https://www.idealista.com/inmueble/93383798/,4681,True,good,False,1.0,5242,"{'subtitle': 'Palos de Moguer, Madrid', 'title': 'Piso en Plaza Luca de Tena'}",True,True,False,False,False,,,,,25.0,2.0,2-5,Delicias,Arganzuela
93199516,https://img3.idealista.com/blur/WEB_LISTING/0/id.pro.es.image.master/09/48/43/857493354.jpg,BS159677,45,6.0,890000,penthouse,sale,94.0,True,2,2,Calle de Maldonado,Madrid,Madrid,Barrio de Salamanca,es,Lista,40.4316741,-3.6731525,False,https://www.idealista.com/inmueble/93199516/,3252,True,good,False,1.0,9468,"{'subtitle': 'Lista, Madrid', 'title': 'Ático en Calle de Maldonado'}",True,True,False,False,False,,penthouse,True,True,45.0,4.0,4-5,Lista,Salamanca
92987441,https://img3.idealista.com/blur/WEB_LISTING/0/id.pro.es.image.master/73/e6/c7/853736605.jpg,es158659,34,4.0,400000,flat,sale,91.0,True,1,1,Paseo Marqués de Zafra,Madrid,Madrid,Barrio de Salamanca,es,Fuente del Berro,40.4259819,-3.6689497,False,https://www.idealista.com/inmueble/92987441/,3807,True,good,False,1.0,4396,"{'subtitle': 'Fuente del Berro, Madrid', 'title': 'Piso en Paseo Marqués de Zafra'}",True,True,False,False,False,,,True,True,42.0,4.0,4-2,Goya,Salamanca
92963797,https://img3.idealista.com/blur/WEB_LISTING/0/id.pro.es.image.master/2b/8e/6a/852998355.jpg,JL 145736,48,3.0,455000,penthouse,sale,130.0,False,3,2,Calle Núñez de Arce,Madrid,Madrid,Centro,es,Huertas-Cortes,40.4144788,-3.7028464,False,https://www.idealista.com/inmueble/92963797/,2901,True,good,False,0.0,3500,"{'subtitle': 'Huertas-Cortes, Madrid', 'title': 'Ático en Calle Núñez de Arce'}",True,True,False,False,False,,penthouse,,,13.0,1.0,1-3,Cortes,Centro
91407251,https://img3.idealista.com/blur/WEB_LISTING/0/id.pro.es.image.master/e0/d7/d2/813860271.jpg,Bajo A,14,bj,696000,duplex,sale,126.0,True,3,3,"Calle Isla de Zanzibar, 59",Madrid,Madrid,Fuencarral,es,Peñagrande,40.4748576,-3.7235515,True,https://www.idealista.com/obra-nueva/91407251/,4041,False,newdevelopment,True,1.0,5524,"{'subtitle': 'Peñagrande, Madrid', 'title': 'Dúplex en Calle Isla de Zanzibar, 59'}",True,False,False,False,False,0.0,duplex,True,True,83.0,8.0,8-3,Peña Grande,Fuencarral - El Pardo
91396710,https://img3.idealista.com/blur/WEB_LISTING/0/id.pro.es.image.master/ca/25/35/871362518.jpg,VM2010038,14,1,460000,flat,sale,65.0,True,1,1,barrio Trafalgar,Madrid,Madrid,Chamberí,es,Trafalgar,40.4369112,-3.698832,False,https://www.idealista.com/inmueble/91396710/,1005,True,good,False,1.0,7077,"{'subtitle': 'Trafalgar, Madrid', 'title': 'Piso'}",True,False,False,False,False,,,,,74.0,7.0,7-4,Almagro,Chamberí
91396708,https://img3.idealista.com/blur/WEB_LISTING/0/id.pro.es.image.master/79/e6/3d/820099045.jpg,VM2010040,17,2,750000,flat,sale,107.0,True,2,2,barrio Trafalgar,Madrid,Madrid,Chamberí,es,Trafalgar,40.4371112,-3.701032,False,https://www.idealista.com/inmueble/91396708/,824,True,good,False,1.0,7009,"{'subtitle': 'Trafalgar, Madrid', 'title': 'Piso'}",True,False,False,False,False,,,True,True,73.0,7.0,7-3,Trafalgar,Chamberí
91282700,https://img3.idealista.com/blur/WEB_LISTING/0/id.pro.es.image.master/3e/be/88/873985112.jpg,salp204,20,8,1650000,flat,sale,308.0,True,5,4,barrio Nueva España,Madrid,Madrid,Chamartín,es,Nueva España,40.4605057,-3.6868972,False,https://www.idealista.com/inmueble/91282700/,3003,False,renew,False,1.0,5357,"{'subtitle': 'Nueva España, Madrid', 'title': 'Piso'}",True,False,False,False,False,,,True,True,55.0,5.0,5-5,Nueva España,Chamartín
90215875,https://img3.idealista.com/blur/WEB_LISTING/0/id.pro.es.image.master/82/fb/e0/785604970.jpg,AS125420,43,4,1200000,duplex,sale,290.0,True,6,4,barrio San Juan Bautista,Madrid,Madrid,Ciudad Lineal,es,San Juan Bautista,40.4483725,-3.6533828,False,https://www.idealista.com/inmueble/90215875/,4880,True,good,False,1.0,4138,"{'subtitle': 'San Juan Bautista, Madrid', 'title': 'Dúplex'}",False,False,False,False,False,,duplex,True,True,156.0,15.0,15-6,San Juan Bautista,Ciudad Lineal
87841569,https://img3.idealista.com/blur/WEB_LISTING/0/id.pro.es.image.master/d8/5f/01/732212171.jpg,podsp511,18,4,3150000,flat,sale,705.0,True,6,5,barrio Almagro,Madrid,Madrid,Chamberí,es,Almagro,40.436388,-3.6926342,False,https://www.idealista.com/inmueble/87841569/,1523,False,renew,False,1.0,4468,"{'subtitle': 'Almagro, Madrid', 'title': 'Piso'}",True,False,False,False,False,,,True,True,74.0,7.0,7-4,Almagro,Chamberí
85312618,https://img3.idealista.com/blur/WEB_LISTING/0/id.pro.es.image.master/22/c0/bd/659355435.jpg,jg136610,54,,1650000,chalet,sale,583.0,False,5,6,barrio Aravaca,Madrid,Madrid,Moncloa,es,Aravaca,40.4578984,-3.7709045,False,https://www.idealista.com/inmueble/85312618/,5524,False,good,False,,2830,"{'subtitle': 'Aravaca, Madrid', 'title': 'Chalet pareado'}",False,False,False,False,False,,semidetachedHouse,True,True,97.0,9.0,9-7,Aravaca,Moncloa - Aravaca
93854791,https://img3.idealista.com/blur/WEB_LISTING/0/id.pro.es.image.master/87/7f/cb/873367703.jpg,EXMADSID003,38,,239000,penthouse,sale,80.0,True,2,1,barrio San Isidro,Madrid,Madrid,Carabanchel,es,San Isidro,40.3966085,-3.7348875,False,https://www.idealista.com/inmueble/93854791/,5264,True,good,False,1.0,2988,"{'subtitle': 'San Isidro, Madrid', 'title': 'Ático'}",True,True,False,False,False,,penthouse,,,113.0,11.0,11-3,San Isidro,Carabanchel
93786936,https://img3.idealista.com/blur/WEB_LISTING/0/id.pro.es.image.master/dd/76/e8/871718701.jpg,cm-424514-C,40,2,1150000,flat,sale,205.0,True,3,3,barrio Chueca-Justicia,Madrid,Madrid,Centro,es,Chueca-Justicia,40.4265831,-3.701109,False,https://www.idealista.com/inmueble/93786936/,1670,False,good,False,1.0,5610,"{'subtitle': 'Chueca-Justicia, Madrid', 'title': 'Piso'}",False,False,False,False,False,,,,,14.0,1.0,1-4,Justicia,Centro
93688187,https://img3.idealista.com/blur/WEB_LISTING/0/id.pro.es.image.master/22/c2/01/869238732.jpg,,28,,2200000,chalet,sale,656.0,False,4,4,barrio Conde Orgaz-Piovera,Madrid,Madrid,Hortaleza,es,Conde Orgaz-Piovera,40.4547233,-3.6435938,False,https://www.idealista.com/inmueble/93688187/,5852,False,renew,False,,3354,"{'subtitle': 'Conde Orgaz-Piovera, Madrid', 'title': 'Casa independiente'}",False,False,False,False,False,,independantHouse,True,True,162.0,16.0,16-2,Piovera,Hortaleza
93687113,https://img3.idealista.com/blur/WEB_LISTING/0/id.pro.es.image.master/f5/57/7a/869211275.jpg,ANG.INV- 154 -B,18,2,320000,flat,sale,50.0,False,1,1,Calle de Alcántara,Madrid,Madrid,Barrio de Salamanca,es,Lista,40.4294053,-3.6753643,False,https://www.idealista.com/inmueble/93687113/,3159,False,good,False,0.0,6400,"{'subtitle': 'Lista, Madrid', 'title': 'Piso en Calle de Alcántara'}",True,False,False,False,False,,,,,45.0,4.0,4-5,Lista,Salamanca
93719639,https://img3.idealista.com/blur/WEB_LISTING/0/id.pro.es.image.master/1c/8f/93/784131741.jpg,P3-9E,48,9,362000,flat,sale,59.0,True,1,1,"Calle San Epifanio, 9",Madrid,Madrid,Arganzuela,es,Imperial,40.4019695,-3.7200203,True,https://www.idealista.com/obra-nueva/93719639/,4312,False,newdevelopment,True,1.0,6136,"{'subtitle': 'Imperial, Madrid', 'title': 'Piso en Calle San Epifanio, 9'}",True,False,False,False,False,0.0,,True,True,21.0,2.0,2-1,Imperial,Arganzuela
93697624,https://img3.idealista.com/blur/WEB_LISTING/0/id.pro.es.image.master/1f/69/9d/869487195.jpg,VO2031,18,bj,180000,flat,sale,63.0,True,3,1,Calle Moratalla,Madrid,Madrid,Hortaleza,es,Pinar del Rey,40.471663,-3.6561619,False,https://www.idealista.com/inmueble/93697624/,5756,True,renew,False,0.0,2857,"{'subtitle': 'Pinar del Rey, Madrid', 'title': 'Piso en Calle Moratalla'}",True,False,False,False,False,,,,,164.0,16.0,16-4,Pinar del Rey,Hortaleza
93260884,https://img3.idealista.com/blur/WEB_LISTING/0/id.pro.es.image.master/68/09/35/858456400.jpg,W-02KNDU,26,2,685000,flat,sale,121.0,True,3,3,barrio Gaztambide,Madrid,Madrid,Chamberí,es,Gaztambide,40.4334563,-3.7171897,False,https://www.idealista.com/inmueble/93260884/,948,True,renew,False,1.0,5661,"{'subtitle': 'Gaztambide, Madrid', 'title': 'Piso'}",False,False,False,False,False,,,,,71.0,7.0,7-1,Gaztambide,Chamberí
93216465,https://img3.idealista.com/blur/WEB_LISTING/0/id.pro.es.image.master/2c/7f/55/857378794.jpg,5032022,19,2,143000,flat,sale,53.0,False,2,1,Calle Alagón,Madrid,Madrid,Barajas,es,Timón,40.4721799,-3.5889453,False,https://www.idealista.com/inmueble/93216465/,10848,False,good,False,0.0,2698,"{'subtitle': 'Timón, Madrid', 'title': 'Piso en Calle Alagón'}",True,False,False,False,False,,,,,214.0,21.0,21-4,Timón,Barajas
92906447,https://img3.idealista.com/blur/WEB_LISTING/0/id.pro.es.image.master/68/cf/b7/858713557.jpg,M1341,38,6,775000,flat,sale,197.0,True,5,3,barrio Cuatro Caminos,Madrid,Madrid,Tetuán,es,Cuatro Caminos,40.4526884,-3.7004454,False,https://www.idealista.com/inmueble/92906447/,1626,False,renew,False,1.0,3934,"{'subtitle': 'Cuatro Caminos, Madrid', 'title': 'Piso'}",True,False,False,False,False,,,,,62.0,6.0,6-2,Cuatro Caminos,Tetuán
92986066,https://img3.idealista.com/blur/WEB_LISTING/0/id.pro.es.image.master/e5/7a/48/852532025.jpg,W-02HWPJ,22,2,520000,flat,sale,91.0,True,2,2,barrio Gaztambide,Madrid,Madrid,Chamberí,es,Gaztambide,40.4349704,-3.7176814,False,https://www.idealista.com/inmueble/92986066/,857,True,good,False,1.0,5714,"{'subtitle': 'Gaztambide, Madrid', 'title': 'Piso'}",False,True,False,False,False,,,,,71.0,7.0,7-1,Gaztambide,Chamberí
92808736,https://img3.idealista.com/blur/WEB_LISTING/0/id.pro.es.image.master/48/37/ec/848620933.jpg,VM2102032,18,3,433000,flat,sale,84.0,False,3,2,Calle de Lagasca,Madrid,Madrid,Barrio de Salamanca,es,Castellana,40.4375242,-3.6828751,False,https://www.idealista.com/inmueble/92808736/,2311,True,good,False,0.0,5155,"{'subtitle': 'Castellana, Madrid', 'title': 'Piso en Calle de Lagasca'}",False,False,False,False,False,,,,,46.0,4.0,4-6,Castellana,Salamanca
92789622,https://img3.idealista.com/blur/WEB_LISTING/0/id.pro.es.image.master/d4/88/2c/848199432.jpg,W-02L3XA,41,6,789000,penthouse,sale,180.0,True,3,2,barrio Alameda de Osuna,Madrid,Madrid,Barajas,es,Alameda de Osuna,40.4646827,-3.5847582,False,https://www.idealista.com/inmueble/92789622/,10946,True,good,False,1.0,4383,"{'subtitle': 'Alameda de Osuna, Madrid', 'title': 'Ático'}",False,False,False,False,False,,penthouse,True,True,211.0,21.0,21-1,Alameda de Osuna,Barajas
92642651,https://img3.idealista.com/blur/WEB_LISTING/0/id.pro.es.image.master/75/4a/46/844660530.jpg,VM2102004,18,5,670000,flat,sale,82.0,False,2,2,Calle de Don Ramón de la Cruz,Madrid,Madrid,Barrio de Salamanca,es,Lista,40.4268574,-3.670863,False,https://www.idealista.com/inmueble/92642651/,3620,True,good,False,1.0,8171,"{'subtitle': 'Lista, Madrid', 'title': 'Piso en Calle de Don Ramón de la Cruz'}",False,False,False,False,False,,,,,42.0,4.0,4-2,Goya,Salamanca
92478575,https://img3.idealista.com/blur/WEB_LISTING/0/id.pro.es.image.master/a6/96/7a/840651166.jpg,W-02K4NL,50,3,560000,penthouse,sale,95.0,True,2,1,barrio Nuevos Ministerios-Ríos Rosas,Madrid,Madrid,Chamberí,es,Nuevos Ministerios-Ríos Rosas,40.4427031,-3.7002907,False,https://www.idealista.com/inmueble/92478575/,874,True,renew,False,1.0,5895,"{'subtitle': 'Nuevos Ministerios-Ríos Rosas, Madrid', 'title': 'Ático'}",False,False,False,False,False,,penthouse,True,True,75.0,7.0,7-5,Rios Rosas,Chamberí
92292510,https://img3.idealista.com/blur/WEB_LISTING/0/id.pro.es.image.master/d7/81/a9/835968917.jpg,W-02KH4H,28,1,720000,flat,sale,141.0,True,3,2,barrio Lista,Madrid,Madrid,Barrio de Salamanca,es,Lista,40.4320821,-3.6727694,False,https://www.idealista.com/inmueble/92292510/,3271,True,good,False,1.0,5106,"{'subtitle': 'Lista, Madrid', 'title': 'Piso'}",False,False,False,False,False,,,,,45.0,4.0,4-5,Lista,Salamanca
92098589,https://img3.idealista.com/blur/WEB_LISTING/0/id.pro.es.image.master/bd/f0/00/830897954.jpg,W-02KM06,28,1,2300000,flat,sale,330.0,True,5,5,barrio Almagro,Madrid,Madrid,Chamberí,es,Almagro,40.429933,-3.6903378,False,https://www.idealista.com/inmueble/92098589/,2005,True,renew,False,1.0,6970,"{'subtitle': 'Almagro, Madrid', 'title': 'Piso'}",False,False,False,False,False,,,True,True,74.0,7.0,7-4,Almagro,Chamberí
91758598,https://img3.idealista.com/blur/WEB_LISTING/0/id.pro.es.image.master/8a/e3/5e/822621956.jpg,W-02H6IG,28,12,2400000,flat,sale,283.0,True,4,3,barrio Ibiza,Madrid,Madrid,Retiro,es,Ibiza,40.4216504,-3.6804548,False,https://www.idealista.com/inmueble/91758598/,3227,False,renew,False,1.0,8481,"{'subtitle': 'Ibiza, Madrid', 'title': 'Piso'}",False,False,False,False,False,,,True,True,41.0,4.0,4-1,Recoletos,Salamanca
91687908,https://img3.idealista.com/blur/WEB_LISTING/0/id.pro.es.image.master/88/77/d4/821797108.jpg,VM2011006,18,en,790000,flat,sale,110.0,True,2,1,Calle de Hermosilla,Madrid,Madrid,Barrio de Salamanca,es,Recoletos,40.4255491,-3.6849081,False,https://www.idealista.com/inmueble/91687908/,2662,True,good,False,1.0,7182,"{'subtitle': 'Recoletos, Madrid', 'title': 'Piso en Calle de Hermosilla'}",False,False,False,False,False,,,True,True,41.0,4.0,4-1,Recoletos,Salamanca
91684816,https://img3.idealista.com/blur/WEB_LISTING/0/id.pro.es.image.master/3c/ba/38/820754886.jpg,W-02H538,26,3,690000,flat,sale,101.0,True,2,2,barrio Palacio,Madrid,Madrid,Centro,es,Palacio,40.414222,-3.708318,False,https://www.idealista.com/inmueble/91684816/,2869,True,good,False,1.0,6832,"{'subtitle': 'Palacio, Madrid', 'title': 'Piso'}",False,False,False,False,False,,,,,11.0,1.0,1-1,Palacio,Centro
86426676,https://img3.idealista.com/blur/WEB_LISTING/0/id.pro.es.image.master/e7/f0/a6/693465373.jpg,W-02GGHI,32,bj,199995,flat,sale,53.0,True,2,2,barrio Bellas Vistas,Madrid,Madrid,Tetuán,es,Bellas Vistas,40.4547194,-3.7038116,False,https://www.idealista.com/inmueble/86426676/,1718,True,good,False,0.0,3773,"{'subtitle': 'Bellas Vistas, Madrid', 'title': 'Piso'}",False,False,False,False,False,,,,,61.0,6.0,6-1,Bellas Vistas,Tetuán
86196637,https://img3.idealista.com/blur/WEB_LISTING/0/id.pro.es.image.master/21/62/41/775203650.jpg,VM1907002,13,ss,396000,flat,sale,81.0,True,1,1,Calle del Conde de Aranda,Madrid,Madrid,Barrio de Salamanca,es,Recoletos,40.4205902,-3.6873553,False,https://www.idealista.com/inmueble/86196637/,2886,True,good,False,1.0,4889,"{'subtitle': 'Recoletos, Madrid', 'title': 'Piso en Calle del Conde de Aranda'}",False,False,False,False,False,,,,,41.0,4.0,4-1,Recoletos,Salamanca
93166981,https://img3.idealista.com/blur/WEB_LISTING/0/id.pro.es.image.master/77/bc/82/845479110.jpg,V2D5,23,7,518900,flat,sale,125.0,True,2,2,"Avenida Juan Antonio Samaranch, 141",Madrid,Madrid,Hortaleza,es,Valdebebas - Valdefuentes,40.493922,-3.6208875,True,https://www.idealista.com/obra-nueva/93166981/,9631,False,newdevelopment,True,1.0,4151,"{'subtitle': 'Valdebebas - Valdefuentes, Madrid', 'title': 'Piso en Avenida Juan Antonio Samaranch, 141'}",True,False,False,False,False,0.0,,True,True,166.0,16.0,16-6,Valdefuentes,Hortaleza
88451009,https://img3.idealista.com/blur/WEB_LISTING/0/id.pro.es.image.master/16/09/44/845479111.jpg,V4D2 3,23,3,661300,flat,sale,171.0,True,4,3,"Avenida Juan Antonio Samaranch, 141",Madrid,Madrid,Hortaleza,es,Valdebebas - Valdefuentes,40.493922,-3.6208875,True,https://www.idealista.com/obra-nueva/88451009/,9631,False,newdevelopment,True,1.0,3867,"{'subtitle': 'Valdebebas - Valdefuentes, Madrid', 'title': 'Piso en Avenida Juan Antonio Samaranch, 141'}",True,False,False,False,False,0.0,,True,True,166.0,16.0,16-6,Valdefuentes,Hortaleza
91214716,https://img3.idealista.com/blur/WEB_LISTING/0/id.pro.es.image.master/a0/24/13/809314929.jpg,wcan915riblocEst,15,bj,109900,studio,sale,38.0,True,0,1,Calle Ribadumia,Madrid,Madrid,San Blas,es,Canillejas,40.4426994,-3.609685,False,https://www.idealista.com/inmueble/91214716/,8494,True,good,False,0.0,2892,"{'subtitle': 'Canillejas, Madrid', 'title': 'Estudio en Calle Ribadumia'}",True,False,False,False,False,,studio,,,207.0,20.0,20-7,Canillejas,San Blas - Canillejas
90139410,https://img3.idealista.com/blur/WEB_LISTING/0/id.pro.es.image.master/8d/5f/d9/784095649.jpg,W-02H9TE,34,4,1060000,flat,sale,234.0,True,4,3,barrio Vallehermoso,Madrid,Madrid,Chamberí,es,Vallehermoso,40.4434997,-3.7124637,False,https://www.idealista.com/inmueble/90139410/,441,True,renew,False,1.0,4530,"{'subtitle': 'Vallehermoso, Madrid', 'title': 'Piso'}",False,False,False,False,False,,,,,76.0,7.0,7-6,Vallehermoso,Chamberí
89068200,https://img3.idealista.com/blur/WEB_LISTING/0/id.pro.es.image.master/c4/5e/3e/762403943.jpg,W-02IFBW,34,6,1200000,flat,sale,178.0,True,3,2,barrio Almagro,Madrid,Madrid,Chamberí,es,Almagro,40.4372965,-3.6948981,False,https://www.idealista.com/inmueble/89068200/,1312,True,good,False,1.0,6742,"{'subtitle': 'Almagro, Madrid', 'title': 'Piso'}",False,False,False,False,False,,,,,74.0,7.0,7-4,Almagro,Chamberí
87970833,https://img3.idealista.com/blur/WEB_LISTING/0/id.pro.es.image.master/e7/b1/e0/753818436.jpg,V13,12,1,499400,flat,sale,114.0,True,2,2,Calle Mª de las Mercedes de Borbón esq c/ Jordi Solé Tura s/n,Madrid,Madrid,Hortaleza,es,Valdebebas - Valdefuentes,40.4922269,-3.612258,True,https://www.idealista.com/obra-nueva/87970833/,10103,False,newdevelopment,True,1.0,4381,"{'subtitle': 'Valdebebas - Valdefuentes, Madrid', 'title': 'Piso en Calle Mª de las Mercedes de Borbón esq c/ Jordi Solé Tura s/n'}",True,False,False,False,False,0.0,,True,True,166.0,16.0,16-6,Valdefuentes,Hortaleza
87768661,https://img3.idealista.com/blur/WEB_LISTING/0/id.pro.es.image.master/51/93/dd/730472599.jpg,W-02HDQ2,30,4,525000,duplex,sale,86.0,True,2,2,barrio Palacio,Madrid,Madrid,Centro,es,Palacio,40.4127102,-3.7088152,False,https://www.idealista.com/inmueble/87768661/,3035,True,good,False,0.0,6105,"{'subtitle': 'Palacio, Madrid', 'title': 'Dúplex'}",False,False,False,False,False,,duplex,,,11.0,1.0,1-1,Palacio,Centro
87144204,https://img3.idealista.com/blur/WEB_LISTING/0/id.pro.es.image.master/54/50/b8/723482502.jpg,W-02GP02,26,bj,363000,flat,sale,77.0,True,1,2,barrio Guindalera,Madrid,Madrid,Barrio de Salamanca,es,Guindalera,40.4368776,-3.6741024,False,https://www.idealista.com/inmueble/87144204/,3057,True,good,False,1.0,4714,"{'subtitle': 'Guindalera, Madrid', 'title': 'Piso'}",False,True,False,False,False,,,True,True,44.0,4.0,4-4,Guindalera,Salamanca
86365370,https://img3.idealista.com/blur/WEB_LISTING/0/id.pro.es.image.master/10/45/12/691046749.jpg,W-02DXIB,52,1,255000,flat,sale,53.0,True,1,1,barrio Castilla,Madrid,Madrid,Chamartín,es,Castilla,40.4689247,-3.6840391,False,https://www.idealista.com/inmueble/86365370/,3894,True,renew,False,1.0,4811,"{'subtitle': 'Castilla, Madrid', 'title': 'Piso'}",False,False,False,False,False,,,,,56.0,5.0,5-6,Castilla,Chamartín
85799594,https://img3.idealista.com/blur/WEB_LISTING/0/id.pro.es.image.master/3b/79/8a/655369790.jpg,PA 1B,72,1,475000,flat,sale,169.0,True,4,3,Calle Concejal Gines Melendez s/n,Madrid,Madrid,San Blas,es,Rejas,40.4428309,-3.575507,True,https://www.idealista.com/obra-nueva/85799594/,11385,False,newdevelopment,True,1.0,2811,"{'subtitle': 'Rejas, Madrid', 'title': 'Piso en Calle Concejal Gines Melendez s/n'}",True,False,False,False,False,0.0,,True,True,206.0,20.0,20-6,Rejas,San Blas - Canillejas
36179457,https://img3.idealista.com/blur/WEB_LISTING/0/id.pro.es.image.master/62/ca/bb/193155759.jpg,W-02858Q,24,3,535000,penthouse,sale,126.0,True,2,2,barrio Simancas,Madrid,Madrid,San Blas,es,Simancas,40.4384908,-3.6314882,False,https://www.idealista.com/inmueble/36179457/,6646,True,good,False,1.0,4246,"{'subtitle': 'Simancas, Madrid', 'title': 'Ático'}",False,False,False,False,False,,penthouse,,,201.0,20.0,20-1,Simancas,San Blas - Canillejas
93790232,https://img3.idealista.com/blur/WEB_LISTING/0/id.pro.es.image.master/5c/40/bf/871804240.jpg,A-0099,12,1,572150,flat,sale,101.0,True,2,2,Calle de Domenico Scarlatti,Madrid,Madrid,Chamberí,es,Vallehermoso,40.4424686,-3.7180523,False,https://www.idealista.com/inmueble/93790232/,734,False,good,False,0.0,5665,"{'subtitle': 'Vallehermoso, Madrid', 'title': 'Piso en Calle de Domenico Scarlatti'}",False,False,False,False,False,,,,,76.0,7.0,7-6,Vallehermoso,Chamberí
93700479,https://img3.idealista.com/blur/WEB_LISTING/0/id.pro.es.image.master/76/cb/49/869586119.jpg,wcan938necAle,22,3,165000,flat,sale,84.0,True,3,1,Calle del Néctar,Madrid,Madrid,San Blas,es,Canillejas,40.44127,-3.61058,False,https://www.idealista.com/inmueble/93700479/,8414,False,good,False,1.0,1964,"{'subtitle': 'Canillejas, Madrid', 'title': 'Piso en Calle del Néctar'}",False,False,True,False,False,,,,,207.0,20.0,20-7,Canillejas,San Blas - Canillejas
93646261,https://img3.idealista.com/blur/WEB_LISTING/0/id.pro.es.image.master/b6/fc/d5/868177541.jpg,APR210,27,6,345000,flat,sale,90.0,True,3,1,Calle Galeón,Madrid,Madrid,Barajas,es,Alameda de Osuna,40.455325,-3.5865827,False,https://www.idealista.com/inmueble/93646261/,10581,False,good,False,1.0,3833,"{'subtitle': 'Alameda de Osuna, Madrid', 'title': 'Piso en Calle Galeón'}",False,False,False,False,False,,,,,211.0,21.0,21-1,Alameda de Osuna,Barajas
93514277,https://img3.idealista.com/blur/WEB_LISTING/0/id.pro.es.image.master/0b/84/f6/864637349.jpg,ID2310321,22,1,229900,flat,sale,71.0,True,3,1,Calle de Alcalá,Madrid,Madrid,San Blas,es,Salvador,40.4380317,-3.6318612,False,https://www.idealista.com/inmueble/93514277/,6616,False,good,False,1.0,3238,"{'subtitle': 'Salvador, Madrid', 'title': 'Piso en Calle de Alcalá'}",False,False,False,False,False,,,,,201.0,20.0,20-1,Simancas,San Blas - Canillejas
93352767,https://img3.idealista.com/blur/WEB_LISTING/0/id.pro.es.image.master/2c/e3/c5/860726454.jpg,M2034,20,1,1000000,flat,sale,185.0,True,2,1,Calle de Orense,Madrid,Madrid,Tetuán,es,Cuatro Caminos,40.4529705,-3.6957583,False,https://www.idealista.com/inmueble/93352767/,1879,True,good,False,1.0,5405,"{'subtitle': 'Cuatro Caminos, Madrid', 'title': 'Piso en Calle de Orense'}",True,False,False,False,False,,,,,62.0,6.0,6-2,Cuatro Caminos,Tetuán
93241152,https://img3.idealista.com/blur/WEB_LISTING/0/id.pro.es.image.master/09/18/d7/857828693.jpg,,40,1,540000,flat,sale,131.0,True,3,2,Calle Monasterio de Guadalupe,Madrid,Madrid,Fuencarral,es,Montecarmelo,40.5063343,-3.7050289,False,https://www.idealista.com/inmueble/93241152/,7387,True,good,False,1.0,4122,"{'subtitle': 'Montecarmelo, Madrid', 'title': 'Piso en Calle Monasterio de Guadalupe'}",True,True,False,False,False,,,True,True,88.0,8.0,8-8,El Goloso,Fuencarral - El Pardo
93038981,https://img3.idealista.com/blur/WEB_LISTING/0/id.pro.es.image.master/1f/e3/94/853208839.jpg,,28,1,1185000,flat,sale,190.0,True,4,3,Calle del General Pardiñas,Madrid,Madrid,Barrio de Salamanca,es,Lista,40.4295803,-3.6794711,False,https://www.idealista.com/inmueble/93038981/,2831,True,good,False,1.0,6237,"{'subtitle': 'Lista, Madrid', 'title': 'Piso en Calle del General Pardiñas'}",True,False,False,False,False,,,True,True,45.0,4.0,4-5,Lista,Salamanca
92780219,https://img3.idealista.com/blur/WEB_LISTING/0/id.pro.es.image.master/6b/44/c8/849050676.jpg,,45,3,740000,flat,sale,129.0,True,4,2,Plaza de Cataluña,Madrid,Madrid,Chamartín,es,El Viso,40.450343,-3.6793682,False,https://www.idealista.com/inmueble/92780219/,2835,False,good,False,1.0,5736,"{'subtitle': 'El Viso, Madrid', 'title': 'Piso en Plaza de Cataluña'}",True,True,False,False,False,,,,,51.0,5.0,5-1,El Viso,Chamartín
92563874,https://img3.idealista.com/blur/WEB_LISTING/90/id.pro.es.image.master/fa/1f/4e/846349552.jpg,,43,2,630000,flat,sale,146.0,True,3,2,Avenida de Bruselas,Madrid,Madrid,Barrio de Salamanca,es,Guindalera,40.4407043,-3.6646012,False,https://www.idealista.com/inmueble/92563874/,3842,False,good,False,1.0,4315,"{'subtitle': 'Guindalera, Madrid', 'title': 'Piso en Avenida de Bruselas'}",True,False,False,False,False,,,,,44.0,4.0,4-4,Guindalera,Salamanca
92560584,https://img3.idealista.com/blur/WEB_LISTING/0/id.pro.es.image.master/f3/3c/e1/852089546.jpg,M2016,71,1,540000,flat,sale,131.0,True,3,2,Calle de Fernández de los Ríos,Madrid,Madrid,Chamberí,es,Arapiles,40.4368957,-3.7045796,False,https://www.idealista.com/inmueble/92560584/,574,True,good,False,1.0,4122,"{'subtitle': 'Arapiles, Madrid', 'title': 'Piso en Calle de Fernández de los Ríos'}",True,False,False,False,False,,,,,72.0,7.0,7-2,Arapiles,Chamberí
92217870,https://img3.idealista.com/blur/WEB_LISTING/0/id.pro.es.image.master/b1/92/4f/834114203.jpg,,27,4,760000,flat,sale,70.0,True,1,2,Calle de Ayala,Madrid,Madrid,Barrio de Salamanca,es,Recoletos,40.4260023,-3.6880227,False,https://www.idealista.com/inmueble/92217870/,2425,False,good,False,1.0,10857,"{'subtitle': 'Recoletos, Madrid', 'title': 'Piso en Calle de Ayala'}",True,False,False,False,False,,,,,41.0,4.0,4-1,Recoletos,Salamanca
88945427,https://img3.idealista.com/blur/WEB_LISTING/0/id.pro.es.image.master/38/d1/6d/788600155.jpg,M1086,23,2,1850000,flat,sale,335.0,True,4,4,Calle de García de Paredes,Madrid,Madrid,Chamberí,es,Almagro,40.4362083,-3.6938246,False,https://www.idealista.com/inmueble/88945427/,1432,True,renew,False,1.0,5522,"{'subtitle': 'Almagro, Madrid', 'title': 'Piso en Calle de García de Paredes'}",True,False,False,False,False,,,,,74.0,7.0,7-4,Almagro,Chamberí
88852513,https://img3.idealista.com/blur/WEB_LISTING/0/id.pro.es.image.master/34/b8/4a/757125755.jpg,,24,3,920000,flat,sale,175.0,True,3,2,"Calle Fuente del Berro, 31",Madrid,Madrid,Barrio de Salamanca,es,Goya,40.4240614,-3.6708673,True,https://www.idealista.com/inmueble/88852513/,3756,True,good,False,1.0,5257,"{'subtitle': 'Goya, Madrid', 'title': 'Piso en Calle Fuente del Berro, 31'}",True,False,False,False,False,,,True,True,42.0,4.0,4-2,Goya,Salamanca
93500347,https://img3.idealista.com/blur/WEB_LISTING/0/id.pro.es.image.master/ae/1e/1e/864561667.jpg,1-1106,50,3,920000,flat,sale,166.0,True,3,2,Calle de Modesto Lafuente,Madrid,Madrid,Chamberí,es,Almagro,40.4368659,-3.6974416,False,https://www.idealista.com/inmueble/93500347/,1118,False,good,False,1.0,5542,"{'subtitle': 'Almagro, Madrid', 'title': 'Piso en Calle de Modesto Lafuente'}",True,False,False,False,False,,,,,74.0,7.0,7-4,Almagro,Chamberí
93302889,https://img3.idealista.com/blur/WEB_LISTING/0/id.pro.es.image.master/9c/7b/e4/859495244.jpg,P1-C,18,1,347000,duplex,sale,75.0,True,1,1,"Calle  Aldea del Fresno, 10",Madrid,Madrid,Arganzuela,es,Chopera,40.3960587,-3.6975291,True,https://www.idealista.com/obra-nueva/93302889/,4998,True,newdevelopment,True,1.0,4627,"{'subtitle': 'Chopera, Madrid', 'title': 'Dúplex en Calle  Aldea del Fresno, 10'}",True,False,False,False,False,0.0,duplex,,,23.0,2.0,2-3,Chopera,Arganzuela
93302473,https://img3.idealista.com/blur/WEB_LISTING/0/id.pro.es.image.master/80/67/b0/859486357.jpg,P1-A,18,1,317000,flat,sale,72.0,True,1,1,"Calle  Aldea del Fresno, 10",Madrid,Madrid,Arganzuela,es,Chopera,40.3960587,-3.6975291,True,https://www.idealista.com/obra-nueva/93302473/,4998,True,newdevelopment,True,1.0,4403,"{'subtitle': 'Chopera, Madrid', 'title': 'Piso en Calle  Aldea del Fresno, 10'}",True,False,False,False,False,0.0,,,,23.0,2.0,2-3,Chopera,Arganzuela
93302521,https://img3.idealista.com/blur/WEB_LISTING/0/id.pro.es.image.master/15/68/bf/859486383.jpg,P1-D,18,1,288000,flat,sale,55.0,True,1,1,"Calle  Aldea del Fresno, 10",Madrid,Madrid,Arganzuela,es,Chopera,40.3960587,-3.6975291,True,https://www.idealista.com/obra-nueva/93302521/,4998,True,newdevelopment,True,1.0,5236,"{'subtitle': 'Chopera, Madrid', 'title': 'Piso en Calle  Aldea del Fresno, 10'}",True,False,False,False,False,0.0,,,,23.0,2.0,2-3,Chopera,Arganzuela
93300693,https://img3.idealista.com/blur/WEB_LISTING/0/id.pro.es.image.master/29/ae/b8/873763078.jpg,JU AR1328,52,1,450000,flat,sale,139.0,True,4,2,Calle de Abtao,Madrid,Madrid,Retiro,es,Pacífico,40.4039244,-3.6757089,False,https://www.idealista.com/inmueble/93300693/,4951,True,good,False,1.0,3237,"{'subtitle': 'Pacífico, Madrid', 'title': 'Piso en Calle de Abtao'}",False,False,False,False,False,,,,,31.0,3.0,3-1,Pacífico,Retiro
93148756,https://img3.idealista.com/blur/WEB_LISTING/0/id.pro.es.image.master/4c/1a/e3/872188383.jpg,1-1097,42,5,799000,flat,sale,146.0,True,4,3,Calle del Doctor Castelo,Madrid,Madrid,Retiro,es,Ibiza,40.4225222,-3.6780051,False,https://www.idealista.com/inmueble/93148756/,3333,False,good,False,1.0,5473,"{'subtitle': 'Ibiza, Madrid', 'title': 'Piso en Calle del Doctor Castelo'}",True,False,False,False,False,,,,,42.0,4.0,4-2,Goya,Salamanca
92894680,https://img3.idealista.com/blur/WEB_LISTING/0/id.pro.es.image.master/6a/18/f6/850469530.jpg,W-02L73D,80,1,239000,flat,sale,50.0,True,1,1,Calle de Américo Castro,Madrid,Madrid,Hortaleza,es,Sanchinarro,40.50095,-3.65309,False,https://www.idealista.com/inmueble/92894680/,8312,False,good,False,1.0,4780,"{'subtitle': 'Sanchinarro, Madrid', 'title': 'Piso en Calle de Américo Castro'}",False,False,False,False,False,,,True,True,166.0,16.0,16-6,Valdefuentes,Hortaleza
92847258,https://img3.idealista.com/blur/WEB_LISTING/0/id.pro.es.image.master/11/44/9f/849809868.jpg,1-1057,46,1,795000,flat,sale,132.0,True,3,2,Calle de Fernán González,Madrid,Madrid,Retiro,es,Ibiza,40.4194177,-3.6748719,False,https://www.idealista.com/inmueble/92847258/,3751,False,good,False,1.0,6023,"{'subtitle': 'Ibiza, Madrid', 'title': 'Piso en Calle de Fernán González'}",True,False,False,False,False,,,,,34.0,3.0,3-4,Ibiza,Retiro
92279227,https://img3.idealista.com/blur/WEB_LISTING/0/id.pro.es.image.master/d8/2d/15/835628519.jpg,000852,46,2,4350000,flat,sale,404.0,True,5,6,Calle de Ayala,Madrid,Madrid,Barrio de Salamanca,es,Recoletos,40.4259814,-3.685267,False,https://www.idealista.com/inmueble/92279227/,2609,False,good,False,1.0,10767,"{'subtitle': 'Recoletos, Madrid', 'title': 'Piso en Calle de Ayala'}",False,False,False,False,False,,,True,False,41.0,4.0,4-1,Recoletos,Salamanca
92168927,https://img3.idealista.com/blur/WEB_LISTING/0/id.pro.es.image.master/8f/e2/81/854754963.jpg,V40-CS-080,59,14,595000,flat,sale,131.0,True,4,2,Calle de Andrés Mellado,Madrid,Madrid,Chamberí,es,Gaztambide,40.4325271,-3.7168318,False,https://www.idealista.com/inmueble/92168927/,1012,True,renew,False,1.0,4542,"{'subtitle': 'Gaztambide, Madrid', 'title': 'Piso en Calle de Andrés Mellado'}",False,False,False,False,False,,,,,71.0,7.0,7-1,Gaztambide,Chamberí
83232144,https://img3.idealista.com/blur/WEB_LISTING/0/id.pro.es.image.master/af/8b/dc/614056671.jpg,12826,9,4,3150000,flat,sale,705.0,True,6,4,barrio Almagro,Madrid,Madrid,Chamberí,es,Almagro,40.436388,-3.6943342,False,https://www.idealista.com/inmueble/83232144/,1385,False,renew,False,1.0,4468,"{'subtitle': 'Almagro, Madrid', 'title': 'Piso'}",True,False,False,False,False,,,True,True,74.0,7.0,7-4,Almagro,Chamberí
88774985,https://img3.idealista.com/blur/WEB_LISTING/0/id.pro.es.image.master/bd/13/a4/755065075.jpg,VI-1  -A,11,1,995000,flat,sale,134.0,True,3,2,"Calle Santa Engracia, 43",Madrid,Madrid,Chamberí,es,Trafalgar,40.4326732,-3.6980008,True,https://www.idealista.com/obra-nueva/88774985/,1301,False,newdevelopment,True,1.0,7425,"{'subtitle': 'Trafalgar, Madrid', 'title': 'Piso en Calle Santa Engracia, 43'}",True,False,False,False,False,0.0,,,,73.0,7.0,7-3,Trafalgar,Chamberí
89413287,https://img3.idealista.com/blur/WEB_LISTING/0/id.pro.es.image.master/a1/3b/07/777902822.jpg,,169,1,975000,flat,sale,210.0,True,4,4,Camino Viejo del Cura,Madrid,La Moraleja,Encinar de los Reyes,es,,40.5051514,-3.6241324,False,https://www.idealista.com/inmueble/89413287/,10258,False,good,False,1.0,4643,"{'subtitle': 'Encinar de los Reyes, La Moraleja', 'title': 'Piso en Camino Viejo del Cura'}",False,False,False,False,False,,,True,True,166.0,16.0,16-6,Valdefuentes,Hortaleza
93646484,https://img3.idealista.com/blur/WEB_LISTING/0/id.pro.es.image.master/f6/86/87/868182380.jpg,2253-57,42,,1485000,chalet,sale,380.0,False,5,6,barrio Valdemarín,Madrid,Madrid,Moncloa,es,Valdemarín,40.4628928,-3.7766299,False,https://www.idealista.com/inmueble/93646484/,6185,True,good,False,,3908,"{'subtitle': 'Valdemarín, Madrid', 'title': 'Chalet pareado'}",True,True,False,False,False,,semidetachedHouse,True,True,95.0,9.0,9-5,Valdemarín,Moncloa - Aravaca
93551362,https://img3.idealista.com/blur/WEB_LISTING/0/id.pro.es.image.master/1e/fb/45/865626042.jpg,1004,46,,1300000,chalet,sale,450.0,False,6,5,barrio Conde Orgaz-Piovera,Madrid,Madrid,Hortaleza,es,Conde Orgaz-Piovera,40.4522433,-3.6490419,False,https://www.idealista.com/inmueble/93551362/,5334,True,good,False,,2889,"{'subtitle': 'Conde Orgaz-Piovera, Madrid', 'title': 'Chalet pareado'}",True,False,False,False,False,,semidetachedHouse,True,True,162.0,16.0,16-2,Piovera,Hortaleza
93856158,https://img3.idealista.com/blur/WEB_LISTING/0/id.pro.es.image.master/38/37/b6/873403622.jpg,248893,29,bj,555000,flat,sale,159.0,False,3,2,barrio Malasaña-Universidad,Madrid,Madrid,Centro,es,Malasaña-Universidad,40.4269529,-3.7063009,False,https://www.idealista.com/inmueble/93856158/,1484,False,good,False,1.0,3491,"{'subtitle': 'Malasaña-Universidad, Madrid', 'title': 'Piso'}",False,False,False,False,False,,,,,15.0,1.0,1-5,Universidad,Centro
93704773,https://img3.idealista.com/blur/WEB_LISTING/0/id.pro.es.image.master/ce/3f/30/869678449.jpg,,46,2,2950000,flat,sale,250.0,True,4,4,barrio Recoletos,Madrid,Madrid,Barrio de Salamanca,es,Recoletos,40.4210559,-3.6848259,False,https://www.idealista.com/inmueble/93704773/,2996,True,good,False,1.0,11800,"{'subtitle': 'Recoletos, Madrid', 'title': 'Piso'}",True,False,False,False,False,,,True,False,41.0,4.0,4-1,Recoletos,Salamanca
93678395,https://img3.idealista.com/blur/WEB_LISTING/0/id.pro.es.image.master/b4/a6/7d/868977263.jpg,850-MAD-3020,40,6,1300000,flat,sale,221.0,True,5,3,barrio Vallehermoso,Madrid,Madrid,Chamberí,es,Vallehermoso,40.4408106,-3.7080361,False,https://www.idealista.com/inmueble/93678395/,189,True,good,False,1.0,5882,"{'subtitle': 'Vallehermoso, Madrid', 'title': 'Piso'}",True,True,False,False,False,,,True,False,76.0,7.0,7-6,Vallehermoso,Chamberí
93578105,https://img3.idealista.com/blur/WEB_LISTING/0/id.pro.es.image.master/1d/4d/83/866292075.jpg,Property_85671,17,6,569000,flat,sale,109.0,True,3,2,"Calle de Modesto Lafuente, 46",Madrid,Madrid,Chamberí,es,Nuevos Ministerios-Ríos Rosas,40.4409856,-3.6958553,True,https://www.idealista.com/inmueble/93578105/,1201,False,good,False,1.0,5220,"{'subtitle': 'Nuevos Ministerios-Ríos Rosas, Madrid', 'title': 'Piso en Calle de Modesto Lafuente, 46'}",True,False,True,False,False,,,,,75.0,7.0,7-5,Rios Rosas,Chamberí
93516281,https://img3.idealista.com/blur/WEB_LISTING/0/id.pro.es.image.master/f6/50/dc/864708613.jpg,AG02051,39,3,920000,flat,sale,216.0,True,5,2,barrio Bernabéu-Hispanoamérica,Madrid,Madrid,Chamartín,es,Bernabéu-Hispanoamérica,40.4530839,-3.6817158,False,https://www.idealista.com/inmueble/93516281/,2800,False,good,False,1.0,4259,"{'subtitle': 'Bernabéu-Hispanoamérica, Madrid', 'title': 'Piso'}",True,False,False,False,False,,,,,54.0,5.0,5-4,Hispanoamérica,Chamartín
89886092,https://img3.idealista.com/blur/WEB_LISTING/0/id.pro.es.image.master/81/99/c3/864297574.jpg,237232,31,2,650000,flat,sale,186.0,True,4,2,barrio Guindalera,Madrid,Madrid,Barrio de Salamanca,es,Guindalera,40.4342999,-3.67329,False,https://www.idealista.com/inmueble/89886092/,3170,False,renew,False,1.0,3495,"{'subtitle': 'Guindalera, Madrid', 'title': 'Piso'}",True,False,False,False,False,,,True,False,44.0,4.0,4-4,Guindalera,Salamanca
89457732,https://img3.idealista.com/blur/WEB_LISTING/0/id.pro.es.image.master/d8/46/0b/784131734.jpg,P3-1A,48,1,309000,flat,sale,49.0,True,1,1,"Calle San Epifanio, 9",Madrid,Madrid,Arganzuela,es,Imperial,40.4019695,-3.7200203,True,https://www.idealista.com/obra-nueva/89457732/,4312,False,newdevelopment,True,1.0,6306,"{'subtitle': 'Imperial, Madrid', 'title': 'Piso en Calle San Epifanio, 9'}",True,False,False,False,False,0.0,,True,True,21.0,2.0,2-1,Imperial,Arganzuela
93213303,https://img3.idealista.com/blur/WEB_LISTING/0/id.pro.es.image.master/92/a8/f3/857146665.jpg,VM2103019,50,,1000000,chalet,sale,204.0,False,6,2,barrio Castilla,Madrid,Madrid,Chamartín,es,Castilla,40.4710527,-3.6819862,False,https://www.idealista.com/inmueble/93213303/,4187,True,good,False,,4902,"{'subtitle': 'Castilla, Madrid', 'title': 'Chalet'}",False,False,False,False,False,,,True,True,56.0,5.0,5-6,Castilla,Chamartín
93016681,https://img3.idealista.com/blur/WEB_LISTING/0/id.pro.es.image.master/69/24/b8/852933714.jpg,246890,22,3,360000,flat,sale,114.0,False,3,1,barrio Sol,Madrid,Madrid,Centro,es,Sol,40.4178079,-3.699241,False,https://www.idealista.com/inmueble/93016681/,2630,False,good,False,0.0,3158,"{'subtitle': 'Sol, Madrid', 'title': 'Piso'}",True,False,False,False,False,,,,,13.0,1.0,1-3,Cortes,Centro
92716245,https://img3.idealista.com/blur/WEB_LISTING/0/id.pro.es.image.master/c6/ff/b4/846333786.jpg,cm-424388,78,2,2030000,flat,sale,250.0,True,3,3,barrio Almagro,Madrid,Madrid,Chamberí,es,Almagro,40.4307961,-3.6964951,False,https://www.idealista.com/inmueble/92716245/,1534,False,good,False,1.0,8120,"{'subtitle': 'Almagro, Madrid', 'title': 'Piso'}",False,False,False,False,False,,,,,74.0,7.0,7-4,Almagro,Chamberí
92670164,https://img3.idealista.com/blur/WEB_LISTING/0/id.pro.es.image.master/24/04/2b/845296341.jpg,nue075JG,51,2,970000,flat,sale,180.0,True,4,3,barrio Nueva España,Madrid,Madrid,Chamartín,es,Nueva España,40.4638229,-3.6875592,False,https://www.idealista.com/inmueble/92670164/,3259,True,renew,False,1.0,5389,"{'subtitle': 'Nueva España, Madrid', 'title': 'Piso'}",True,False,False,False,False,,,True,True,55.0,5.0,5-5,Nueva España,Chamartín
92520944,https://img3.idealista.com/blur/WEB_LISTING/0/id.pro.es.image.master/1a/c7/f8/841612469.jpg,pio023JG,61,2,1230000,flat,sale,361.0,True,4,4,barrio Conde Orgaz-Piovera,Madrid,Madrid,Hortaleza,es,Conde Orgaz-Piovera,40.4570434,-3.646535,False,https://www.idealista.com/inmueble/92520944/,5694,True,good,False,1.0,3407,"{'subtitle': 'Conde Orgaz-Piovera, Madrid', 'title': 'Piso'}",True,False,False,False,False,,,True,True,162.0,16.0,16-2,Piovera,Hortaleza
92473253,https://img3.idealista.com/blur/WEB_LISTING/0/id.pro.es.image.master/07/bd/4a/843587190.jpg,02V21.GRANADA,41,2,395000,flat,sale,110.0,True,3,2,granada,Madrid,Madrid,Retiro,es,Pacífico,40.4038413,-3.6736213,False,https://www.idealista.com/inmueble/92473253/,5064,True,renew,False,1.0,3591,"{'subtitle': 'Pacífico, Madrid', 'title': 'Piso en granada'}",False,False,False,False,False,,,True,False,31.0,3.0,3-1,Pacífico,Retiro
91689179,https://img3.idealista.com/blur/WEB_LISTING/0/id.pro.es.image.master/9e/cd/83/820847960.jpg,VMO2011003,20,bj,550000,flat,sale,115.0,True,2,2,barrio Valdemarín,Madrid,Madrid,Moncloa,es,Valdemarín,40.4655964,-3.7949941,False,https://www.idealista.com/inmueble/91689179/,7733,True,good,False,1.0,4783,"{'subtitle': 'Valdemarín, Madrid', 'title': 'Piso'}",False,False,False,False,False,,,True,True,95.0,9.0,9-5,Valdemarín,Moncloa - Aravaca
90701207,https://img3.idealista.com/blur/WEB_LISTING/0/id.pro.es.image.master/ee/3e/9f/796477583.jpg,VM2007030-1,27,5,445000,flat,sale,94.0,False,1,1,barrio Nuevos Ministerios-Ríos Rosas,Madrid,Madrid,Chamberí,es,Nuevos Ministerios-Ríos Rosas,40.4416129,-3.7030326,False,https://www.idealista.com/inmueble/90701207/,616,True,good,False,1.0,4734,"{'subtitle': 'Nuevos Ministerios-Ríos Rosas, Madrid', 'title': 'Piso'}",False,False,False,False,False,,,True,True,75.0,7.0,7-5,Rios Rosas,Chamberí
91551029,https://img3.idealista.com/blur/WEB_LISTING/0/id.pro.es.image.master/b5/06/bf/817273768.jpg,DS-P77092,57,en,2200000,flat,sale,224.0,True,4,3,barrio Jerónimos,Madrid,Madrid,Retiro,es,Jerónimos,40.4152879,-3.6897847,False,https://www.idealista.com/inmueble/91551029/,3236,True,good,False,1.0,9821,"{'subtitle': 'Jerónimos, Madrid', 'title': 'Piso'}",False,False,False,False,False,,,,,35.0,3.0,3-5,Los Jerónimos,Retiro
36406109,https://img3.idealista.com/blur/WEB_LISTING/0/id.pro.es.image.master/92/12/9c/768834235.jpg,VM1703027,31,,2500000,chalet,sale,369.0,False,5,4,barrio El Viso,Madrid,Madrid,Chamartín,es,El Viso,40.4440038,-3.6918381,False,https://www.idealista.com/inmueble/36406109/,1600,True,renew,False,,6775,"{'subtitle': 'El Viso, Madrid', 'title': 'Casa independiente'}",False,False,False,False,False,,independantHouse,True,True,75.0,7.0,7-5,Rios Rosas,Chamberí
91300791,https://img3.idealista.com/blur/WEB_LISTING/0/id.pro.es.image.master/2c/af/41/811421891.jpg,VM2010017,20,bj,1500000,duplex,sale,221.0,True,2,3,barrio Jerónimos,Madrid,Madrid,Retiro,es,Jerónimos,40.4093977,-3.6887781,False,https://www.idealista.com/inmueble/91300791/,3847,True,good,False,1.0,6787,"{'subtitle': 'Jerónimos, Madrid', 'title': 'Dúplex'}",False,False,False,False,False,,duplex,True,True,35.0,3.0,3-5,Los Jerónimos,Retiro
90010538,https://img3.idealista.com/blur/WEB_LISTING/0/id.pro.es.image.master/81/73/05/783922667.jpg,M07023ZA,30,bj,1750000,chalet,sale,998.0,False,8,7,barrio El Plantío,Madrid,Madrid,Moncloa,es,El Plantío,40.467823,-3.8083368,False,https://www.idealista.com/inmueble/90010538/,8876,False,renew,False,,1754,"{'subtitle': 'El Plantío, Madrid', 'title': 'Chalet'}",False,False,False,False,False,,,,,96.0,9.0,9-6,El Plantío,Moncloa - Aravaca
90590330,https://img3.idealista.com/blur/WEB_LISTING/0/id.pro.es.image.master/f6/20/80/793892887.jpg,JB118961,28,,1395000,chalet,sale,700.0,False,5,4,barrio Valdezarza,Madrid,Madrid,Moncloa,es,Valdezarza,40.4702474,-3.7253917,False,https://www.idealista.com/inmueble/90590330/,3606,False,good,False,,1993,"{'subtitle': 'Valdezarza, Madrid', 'title': 'Casa independiente'}",False,False,False,False,False,,independantHouse,True,True,94.0,9.0,9-4,Valdezarza,Moncloa - Aravaca
91041497,https://img3.idealista.com/blur/WEB_LISTING/0/id.pro.es.image.master/91/fd/b6/738205361.jpg,P2-2A_,65,2,647000,flat,sale,117.0,True,3,2,"Calle San Epifanio, 9",Madrid,Madrid,Arganzuela,es,Imperial,40.4019695,-3.7200203,True,https://www.idealista.com/obra-nueva/91041497/,4312,False,newdevelopment,True,1.0,5530,"{'subtitle': 'Imperial, Madrid', 'title': 'Piso en Calle San Epifanio, 9'}",True,False,False,False,False,0.0,,True,True,21.0,2.0,2-1,Imperial,Arganzuela
88579615,https://img3.idealista.com/blur/WEB_LISTING/0/id.pro.es.image.master/c7/3c/68/750136026.jpg,MAD190323,47,4.0,7525000,flat,sale,624.0,True,5,1,barrio Recoletos,Madrid,Madrid,Barrio de Salamanca,es,Recoletos,40.4213884,-3.6905535,False,https://www.idealista.com/inmueble/88579615/,2644,True,good,False,1.0,12059,"{'subtitle': 'Recoletos, Madrid', 'title': 'Piso'}",False,False,False,False,False,,,True,True,41.0,4.0,4-1,Recoletos,Salamanca
87799607,https://img3.idealista.com/blur/WEB_LISTING/0/id.pro.es.image.master/08/08/08/838191788.jpg,4226,30,2.0,2200000,flat,sale,312.0,True,4,5,barrio Recoletos,Madrid,Madrid,Barrio de Salamanca,es,Recoletos,40.4255121,-3.6870692,False,https://www.idealista.com/inmueble/87799607/,2522,False,good,False,1.0,7051,"{'subtitle': 'Recoletos, Madrid', 'title': 'Piso'}",False,False,False,False,False,,,True,False,41.0,4.0,4-1,Recoletos,Salamanca
87846252,https://img3.idealista.com/blur/WEB_LISTING/0/id.pro.es.image.master/f0/a4/4a/807528255.jpg,231731,22,4.0,499000,flat,sale,88.0,True,2,2,barrio Almagro,Madrid,Madrid,Chamberí,es,Almagro,40.4317472,-3.6936366,False,https://www.idealista.com/inmueble/87846252/,1661,False,good,False,0.0,5670,"{'subtitle': 'Almagro, Madrid', 'title': 'Piso'}",True,False,False,False,False,,,,,74.0,7.0,7-4,Almagro,Chamberí
35671060,https://img3.idealista.com/blur/WEB_LISTING/0/id.pro.es.image.master/50/60/9f/184841838.jpg,,28,,4975000,chalet,sale,1150.0,False,9,8,barrio Conde Orgaz-Piovera,Madrid,Madrid,Hortaleza,es,Conde Orgaz-Piovera,40.4577352,-3.631468,False,https://www.idealista.com/inmueble/35671060/,6931,False,good,False,,4326,"{'subtitle': 'Conde Orgaz-Piovera, Madrid', 'title': 'Casa independiente'}",False,False,False,False,False,,independantHouse,True,True,162.0,16.0,16-2,Piovera,Hortaleza
549083,https://img3.idealista.com/blur/WEB_LISTING/0/id.pro.es.image.master/82/6a/45/11610098.jpg,,35,,3950000,chalet,sale,1500.0,False,6,6,barrio Conde Orgaz-Piovera,Madrid,Madrid,Hortaleza,es,Conde Orgaz-Piovera,40.4529393,-3.6491062,False,https://www.idealista.com/inmueble/549083/,5349,False,good,False,,2633,"{'subtitle': 'Conde Orgaz-Piovera, Madrid', 'title': 'Casa independiente'}",False,False,False,False,False,,independantHouse,,,162.0,16.0,16-2,Piovera,Hortaleza
38085163,https://img3.idealista.com/blur/WEB_LISTING/0/id.pro.es.image.master/db/56/42/822690748.jpg,,31,,3500000,chalet,sale,700.0,False,5,5,barrio Conde Orgaz-Piovera,Madrid,Madrid,Hortaleza,es,Conde Orgaz-Piovera,40.4494918,-3.6432044,False,https://www.idealista.com/inmueble/38085163/,5749,False,good,False,,5000,"{'subtitle': 'Conde Orgaz-Piovera, Madrid', 'title': 'Casa independiente'}",False,False,False,False,False,,independantHouse,True,True,162.0,16.0,16-2,Piovera,Hortaleza
84593508,https://img3.idealista.com/blur/WEB_LISTING/0/id.pro.es.image.master/f2/99/6c/609215695.jpg,P4. 6D,82,6.0,494000,flat,sale,129.0,True,2,2,"Calle José Antonio Fernández Ordóñez, 38",Madrid,Madrid,Hortaleza,es,Valdebebas - Valdefuentes,40.4908333,-3.6075219,True,https://www.idealista.com/obra-nueva/84593508/,10348,False,newdevelopment,True,1.0,3829,"{'subtitle': 'Valdebebas - Valdefuentes, Madrid', 'title': 'Piso en Calle José Antonio Fernández Ordóñez, 38'}",True,False,False,False,False,0.0,,True,True,166.0,16.0,16-6,Valdefuentes,Hortaleza
93795070,https://img3.idealista.com/blur/WEB_LISTING/0/id.pro.es.image.master/59/fe/74/871931185.jpg,VO2033,19,4.0,146500,flat,sale,56.0,True,2,1,Calle Azagra,Madrid,Madrid,Hortaleza,es,Pinar del Rey,40.4748064,-3.645484,False,https://www.idealista.com/inmueble/93795070/,6691,True,good,False,0.0,2616,"{'subtitle': 'Pinar del Rey, Madrid', 'title': 'Piso en Calle Azagra'}",False,False,False,False,False,,,,,164.0,16.0,16-4,Pinar del Rey,Hortaleza
93387769,https://img3.idealista.com/blur/WEB_LISTING/0/id.pro.es.image.master/d0/01/95/861580748.jpg,M1348,17,1.0,450000,flat,sale,77.0,True,1,1,Calle del Doctor Fleming,Madrid,Madrid,Chamartín,es,Nueva España,40.458785,-3.6854493,False,https://www.idealista.com/inmueble/93387769/,2945,False,good,False,1.0,5844,"{'subtitle': 'Nueva España, Madrid', 'title': 'Piso en Calle del Doctor Fleming'}",True,False,False,False,False,,,,,55.0,5.0,5-5,Nueva España,Chamartín
93667428,https://img3.idealista.com/blur/WEB_LISTING/0/id.pro.es.image.master/65/d7/8e/868775112.jpg,CONDE DE MIRANDA,31,1.0,298000,flat,sale,44.0,True,1,1,"Calle del Conde de Miranda, 1",Madrid,Madrid,Centro,es,Palacio,40.4147489,-3.7094168,True,https://www.idealista.com/inmueble/93667428/,2808,True,good,False,1.0,6773,"{'subtitle': 'Palacio, Madrid', 'title': 'Piso en Calle del Conde de Miranda, 1'}",False,False,False,False,False,,,,,11.0,1.0,1-1,Palacio,Centro
93665321,https://img3.idealista.com/blur/WEB_LISTING/0/id.pro.es.image.master/55/40/91/868771861.jpg,CORREDERA BAJA DE SAN PABLO,32,5.0,168000,flat,sale,29.0,True,1,1,"Corredera Baja de San Pablo, 32",Madrid,Madrid,Centro,es,Malasaña-Universidad,40.423631,-3.7024416,True,https://www.idealista.com/inmueble/93665321/,1929,True,good,False,0.0,5793,"{'subtitle': 'Malasaña-Universidad, Madrid', 'title': 'Piso en Corredera Baja de San Pablo, 32'}",False,False,False,False,False,,,,,15.0,1.0,1-5,Universidad,Centro
93595766,https://img3.idealista.com/blur/WEB_LISTING/0/id.pro.es.image.master/bd/35/db/866699819.jpg,CARMEN,31,4.0,268000,flat,sale,50.0,True,1,1,"Carmen, 16",Madrid,Madrid,Centro,es,Sol,40.4186351,-3.7045432,True,https://www.idealista.com/inmueble/93595766/,2420,True,renew,False,0.0,5360,"{'subtitle': 'Sol, Madrid', 'title': 'Piso en Carmen, 16'}",False,False,False,False,False,,,,,16.0,1.0,1-6,Sol,Centro
93595604,https://img3.idealista.com/blur/WEB_LISTING/0/id.pro.es.image.master/e8/61/42/866695766.jpg,SAN LORENZO,26,4.0,178000,studio,sale,35.0,False,0,1,"San Lorenzo, 2",Madrid,Madrid,Centro,es,Chueca-Justicia,40.4252887,-3.69967,True,https://www.idealista.com/inmueble/93595604/,1854,True,good,False,1.0,5086,"{'subtitle': 'Chueca-Justicia, Madrid', 'title': 'Estudio en San Lorenzo, 2'}",False,False,False,False,False,,studio,,,14.0,1.0,1-4,Justicia,Centro
93595363,https://img3.idealista.com/blur/WEB_LISTING/0/id.pro.es.image.master/a8/8d/52/866689191.jpg,LIBERTAD,32,4.0,188000,studio,sale,48.0,False,0,1,"Libertad, 11",Madrid,Madrid,Centro,es,Chueca-Justicia,40.4207865,-3.6976876,True,https://www.idealista.com/inmueble/93595363/,2376,True,good,False,1.0,3917,"{'subtitle': 'Chueca-Justicia, Madrid', 'title': 'Estudio en Libertad, 11'}",False,False,False,False,False,,studio,,,14.0,1.0,1-4,Justicia,Centro
93595276,https://img3.idealista.com/blur/WEB_LISTING/0/id.pro.es.image.master/1d/30/ae/866687177.jpg,SAN VICENE FERRER,42,4.0,158000,studio,sale,29.0,True,0,1,"San Vicente Ferrer, 74",Madrid,Madrid,Centro,es,Malasaña-Universidad,40.4262611,-3.7079943,True,https://www.idealista.com/inmueble/93595276/,1537,True,good,False,0.0,5448,"{'subtitle': 'Malasaña-Universidad, Madrid', 'title': 'Estudio en San Vicente Ferrer, 74'}",False,False,False,False,False,,studio,,,15.0,1.0,1-5,Universidad,Centro
93591866,https://img3.idealista.com/blur/WEB_LISTING/0/id.pro.es.image.master/55/9c/9b/866599463.jpg,AVENIDA PESETA,36,2.0,189000,flat,sale,54.0,True,1,1,"Avenida de la Peseta, 92",Madrid,Madrid,Carabanchel,es,Pau de Carabanchel,40.362006,-3.7501348,True,https://www.idealista.com/inmueble/93591866/,9314,True,good,False,1.0,3500,"{'subtitle': 'Pau de Carabanchel, Madrid', 'title': 'Piso en Avenida de la Peseta, 92'}",False,False,False,False,False,,,True,True,116.0,11.0,11-6,Buenavista,Carabanchel
93582933,https://img3.idealista.com/blur/WEB_LISTING/0/id.pro.es.image.master/af/a6/6a/866414381.jpg,ANG-INV.145,13,3.0,264900,flat,sale,62.0,False,2,1,Luis Vives,Madrid,Madrid,Chamartín,es,Ciudad Jardín,40.4441914,-3.6780843,False,https://www.idealista.com/inmueble/93582933/,2740,False,good,False,0.0,4273,"{'subtitle': 'Ciudad Jardín, Madrid', 'title': 'Piso en Luis Vives'}",True,False,False,False,False,,,,,53.0,5.0,5-3,Ciudad Jardín,Chamartín
93416826,https://img3.idealista.com/blur/WEB_LISTING/0/id.pro.es.image.master/05/c8/30/862322170.jpg,M2035,20,4.0,650000,flat,sale,120.0,True,4,2,barrio Argüelles,Madrid,Madrid,Moncloa,es,Argüelles,40.4312933,-3.7179169,False,https://www.idealista.com/inmueble/93416826/,1177,True,good,False,1.0,5417,"{'subtitle': 'Argüelles, Madrid', 'title': 'Piso'}",True,False,False,False,False,,,,,92.0,9.0,9-2,Argüelles,Moncloa - Aravaca
82724993,https://img3.idealista.com/blur/WEB_LISTING/0/id.pro.es.image.master/3b/b6/1c/603481701.jpg,MAV02220,22,,2200000,chalet,sale,796.0,False,4,4,barrio Conde Orgaz-Piovera,Madrid,Madrid,Hortaleza,es,Conde Orgaz-Piovera,40.4512485,-3.637776,False,https://www.idealista.com/inmueble/82724993/,6238,False,renew,False,,2764,"{'subtitle': 'Conde Orgaz-Piovera, Madrid', 'title': 'Casa independiente'}",False,False,False,False,False,,independantHouse,,,162.0,16.0,16-2,Piovera,Hortaleza
93767151,https://img3.idealista.com/blur/WEB_LISTING/0/id.pro.es.image.master/a1/ff/96/871330312.jpg,MOR239,19,3,149000,flat,sale,68.0,True,3,1,Calle de la Hacienda de Pavones,Madrid,Madrid,Moratalaz,es,Fontarrón,40.4036595,-3.6477212,False,https://www.idealista.com/inmueble/93767151/,6642,False,renew,False,0.0,2191,"{'subtitle': 'Fontarrón, Madrid', 'title': 'Piso en Calle de la Hacienda de Pavones'}",True,False,True,False,False,,,,,145.0,14.0,14-5,Fontarrón,Moratalaz
93514306,https://img3.idealista.com/blur/WEB_LISTING/0/id.pro.es.image.master/1a/31/55/864638324.jpg,ID1290321,23,4,376000,flat,sale,95.0,True,3,2,Calle Luis Sánchez Polack Tip,Madrid,Madrid,San Blas,es,Simancas,40.434,-3.62596,False,https://www.idealista.com/inmueble/93514306/,7143,False,good,False,1.0,3958,"{'subtitle': 'Simancas, Madrid', 'title': 'Piso en Calle Luis Sánchez Polack Tip'}",False,False,False,False,False,,,True,True,201.0,20.0,20-1,Simancas,San Blas - Canillejas
93394550,https://img3.idealista.com/blur/WEB_LISTING/0/id.pro.es.image.master/74/53/2d/861754636.jpg,PN40324,22,5,492000,penthouse,sale,70.0,True,2,2,Calle de Alcalá,Madrid,Madrid,San Blas,es,Salvador,40.4400447,-3.6320615,False,https://www.idealista.com/inmueble/93394550/,6595,False,good,False,1.0,7029,"{'subtitle': 'Salvador, Madrid', 'title': 'Ático en Calle de Alcalá'}",False,False,True,False,False,,penthouse,True,True,208.0,20.0,20-8,Salvador,San Blas - Canillejas
93158771,https://img3.idealista.com/blur/WEB_LISTING/0/id.pro.es.image.master/bd/01/0a/855786125.jpg,VO0303,22,1,337000,flat,sale,107.0,True,3,2,Avenida de Niza,Madrid,Madrid,San Blas,es,Rosas,40.4354873,-3.6091515,False,https://www.idealista.com/inmueble/93158771/,8549,False,good,False,1.0,3150,"{'subtitle': 'Rosas, Madrid', 'title': 'Piso en Avenida de Niza'}",False,False,False,False,False,,,True,True,207.0,20.0,20-7,Canillejas,San Blas - Canillejas
93072528,https://img3.idealista.com/blur/WEB_LISTING/0/id.pro.es.image.master/51/2c/e0/853838821.jpg,VO2521,29,3,330000,flat,sale,97.0,True,3,2,Avenida de Niza,Madrid,Madrid,San Blas,es,Rosas,40.4354873,-3.6100515,False,https://www.idealista.com/inmueble/93072528/,8473,False,good,False,1.0,3402,"{'subtitle': 'Rosas, Madrid', 'title': 'Piso en Avenida de Niza'}",False,False,False,False,False,,,,,207.0,20.0,20-7,Canillejas,San Blas - Canillejas
92930725,https://img3.idealista.com/blur/WEB_LISTING/0/id.pro.es.image.master/14/bc/59/851410861.jpg,VO2002,32,4,348000,flat,sale,109.0,True,3,2,Calle Sofía,Madrid,Madrid,San Blas,es,Rosas,40.4290174,-3.5994107,False,https://www.idealista.com/inmueble/92930725/,9438,False,good,False,1.0,3193,"{'subtitle': 'Rosas, Madrid', 'title': 'Piso en Calle Sofía'}",False,False,False,False,False,,,True,True,205.0,20.0,20-5,Rosas,San Blas - Canillejas
92657618,https://img3.idealista.com/blur/WEB_LISTING/0/id.pro.es.image.master/04/65/5a/845118582.jpg,VO0202,29,5,365000,penthouse,sale,98.0,True,2,1,Calle de Bucarest,Madrid,Madrid,San Blas,es,Rosas,40.4251099,-3.6002737,False,https://www.idealista.com/inmueble/92657618/,9433,False,good,False,1.0,3724,"{'subtitle': 'Rosas, Madrid', 'title': 'Ático en Calle de Bucarest'}",False,False,False,False,False,,penthouse,True,True,205.0,20.0,20-5,Rosas,San Blas - Canillejas
92367294,https://img3.idealista.com/blur/WEB_LISTING/0/id.pro.es.image.master/ae/34/e2/864546460.jpg,M00064FV,42,3,575000,duplex,sale,105.0,True,3,2,barrio Campo de las Naciones-Corralejos,Madrid,Madrid,Barajas,es,Campo de las Naciones-Corralejos,40.4665129,-3.5954485,False,https://www.idealista.com/inmueble/92367294/,10130,True,good,False,1.0,5476,"{'subtitle': 'Campo de las Naciones-Corralejos, Madrid', 'title': 'Dúplex'}",False,False,False,False,False,,duplex,True,True,215.0,21.0,21-5,Corralejos,Barajas
91958807,https://img3.idealista.com/blur/WEB_LISTING/0/id.pro.es.image.master/6f/51/6e/827373505.jpg,wcan924bolMil,22,2,179000,flat,sale,76.0,False,3,1,Calle Boltaña,Madrid,Madrid,San Blas,es,Canillejas,40.4444967,-3.6127955,False,https://www.idealista.com/inmueble/91958807/,8240,True,good,False,1.0,2355,"{'subtitle': 'Canillejas, Madrid', 'title': 'Piso en Calle Boltaña'}",False,False,False,False,False,,,,,207.0,20.0,20-7,Canillejas,San Blas - Canillejas
91685812,https://img3.idealista.com/blur/WEB_LISTING/0/id.pro.es.image.master/d8/75/d6/820776833.jpg,INM6213,46,6,385000,flat,sale,85.0,True,3,1,Calle Cruz del Sur,Madrid,Madrid,Retiro,es,Estrella,40.41027,-3.66859,False,https://www.idealista.com/inmueble/91685812/,4817,False,good,False,1.0,4529,"{'subtitle': 'Estrella, Madrid', 'title': 'Piso en Calle Cruz del Sur'}",False,False,True,False,False,,,True,False,33.0,3.0,3-3,Estrella,Retiro
91223094,https://img3.idealista.com/blur/WEB_LISTING/0/id.pro.es.image.master/a2/7b/c7/847996906.jpg,MON-4054,20,bj,169000,flat,sale,45.0,True,2,1,Avenida SEPTIMA,Madrid,Madrid,San Blas,es,Rejas,40.4458425,-3.5987981,False,https://www.idealista.com/inmueble/91223094/,9432,False,good,False,1.0,3756,"{'subtitle': 'Rejas, Madrid', 'title': 'Piso en Avenida SEPTIMA'}",True,False,False,False,False,,,,,206.0,20.0,20-6,Rejas,San Blas - Canillejas
91123764,https://img3.idealista.com/blur/WEB_LISTING/0/id.pro.es.image.master/ba/2a/e3/807343120.jpg,VO30092.2,25,1,330000,flat,sale,118.0,True,3,2,Avenida de Guadalajara,Madrid,Madrid,San Blas,es,Rosas,40.4253009,-3.611164,False,https://www.idealista.com/inmueble/91123764/,8523,False,good,False,1.0,2797,"{'subtitle': 'Rosas, Madrid', 'title': 'Piso en Avenida de Guadalajara'}",False,False,False,False,False,,,,,205.0,20.0,20-5,Rosas,San Blas - Canillejas
89458085,https://img3.idealista.com/blur/WEB_LISTING/0/id.pro.es.image.master/7e/72/24/771858105.jpg,,14,bj,150000,flat,sale,35.0,False,1,1,Calle del Mesón de Paredes,Madrid,Madrid,Centro,es,Lavapiés-Embajadores,40.4094327,-3.7049434,False,https://www.idealista.com/inmueble/89458085/,3425,True,good,False,0.0,4286,"{'subtitle': 'Lavapiés-Embajadores, Madrid', 'title': 'Piso en Calle del Mesón de Paredes'}",True,False,False,False,False,,,,,12.0,1.0,1-2,Embajadores,Centro
88688954,https://img3.idealista.com/blur/WEB_LISTING/0/id.pro.es.image.master/11/13/20/862667837.jpg,wcan939etrEst,38,4,309900,duplex,sale,104.0,True,3,2,Calle de Etruria,Madrid,Madrid,San Blas,es,Canillejas,40.436474,-3.6098217,False,https://www.idealista.com/inmueble/88688954/,8486,True,good,False,0.0,2980,"{'subtitle': 'Canillejas, Madrid', 'title': 'Dúplex en Calle de Etruria'}",False,False,True,False,False,,duplex,,,207.0,20.0,20-7,Canillejas,San Blas - Canillejas
91218500,https://img3.idealista.com/blur/WEB_LISTING/0/id.pro.es.image.master/4a/52/d3/685673682.jpg,V18,11,1,625000,flat,sale,151.0,True,3,2,"Calle Ana de Austria, 83",Madrid,Madrid,Hortaleza,es,Sanchinarro,40.5010105,-3.6566543,True,https://www.idealista.com/obra-nueva/91218500/,8147,False,newdevelopment,True,1.0,4139,"{'subtitle': 'Sanchinarro, Madrid', 'title': 'Piso en Calle Ana de Austria, 83'}",True,False,False,False,False,0.0,,True,True,166.0,16.0,16-6,Valdefuentes,Hortaleza
93618333,https://img3.idealista.com/blur/WEB_LISTING/0/id.pro.es.image.master/38/8c/69/867712819.jpg,MOP-4027,28,1,199000,studio,sale,26.0,False,0,1,Calle del General Pardiñas,Madrid,Madrid,Barrio de Salamanca,es,Goya,40.4265538,-3.680424,False,https://www.idealista.com/inmueble/93618333/,2915,False,good,False,1.0,7654,"{'subtitle': 'Goya, Madrid', 'title': 'Estudio en Calle del General Pardiñas'}",False,False,False,False,False,,studio,,,41.0,4.0,4-1,Recoletos,Salamanca
89781748,https://img3.idealista.com/blur/WEB_LISTING/0/id.pro.es.image.master/22/55/50/776360417.jpg,ES86,25,2,415000,flat,sale,74.0,True,2,2,Calle de Sancho Dávila,Madrid,Madrid,Barrio de Salamanca,es,Fuente del Berro,40.4295467,-3.6633718,False,https://www.idealista.com/inmueble/89781748/,4113,False,good,False,1.0,5608,"{'subtitle': 'Fuente del Berro, Madrid', 'title': 'Piso en Calle de Sancho Dávila'}",True,False,False,False,False,,,,,43.0,4.0,4-3,Fuente del Berro,Salamanca
88669120,https://img3.idealista.com/blur/WEB_LISTING/0/id.pro.es.image.master/0a/5f/4c/753060952.jpg,ES78,28,4,675000,flat,sale,92.0,True,2,2,Calle de Serrano,Madrid,Madrid,Barrio de Salamanca,es,Castellana,40.4352051,-3.6849526,False,https://www.idealista.com/inmueble/88669120/,2185,False,good,False,1.0,7337,"{'subtitle': 'Castellana, Madrid', 'title': 'Piso en Calle de Serrano'}",True,False,False,False,False,,,,,46.0,4.0,4-6,Castellana,Salamanca
88283929,https://img3.idealista.com/blur/WEB_LISTING/0/id.pro.es.image.master/68/7f/7c/744873925.jpg,ES70,32,4,730000,flat,sale,129.0,True,4,2,Calle de Jorge Juan,Madrid,Madrid,Barrio de Salamanca,es,Goya,40.4229891,-3.6782541,False,https://www.idealista.com/inmueble/88283929/,3285,False,renew,False,1.0,5659,"{'subtitle': 'Goya, Madrid', 'title': 'Piso en Calle de Jorge Juan'}",True,False,False,False,False,,,True,False,42.0,4.0,4-2,Goya,Salamanca
92407621,https://img3.idealista.com/blur/WEB_LISTING/0/id.pro.es.image.master/22/51/d3/839038710.jpg,fresnova,40,3,698000,flat,sale,282.0,True,5,3,Calle de Fresnedillas,Madrid,Madrid,Fuencarral,es,Fuentelarreina,40.476965,-3.7401096,False,https://www.idealista.com/inmueble/92407621/,4835,False,good,False,1.0,2475,"{'subtitle': 'Fuentelarreina, Madrid', 'title': 'Piso en Calle de Fresnedillas'}",True,False,False,False,False,,,True,True,82.0,8.0,8-2,Fuentelareina,Fuencarral - El Pardo
90671561,https://img3.idealista.com/blur/WEB_LISTING/0/id.pro.es.image.master/8a/d0/1e/857588809.jpg,4168188,12,2,650000,flat,sale,163.0,True,4,4,barrio Goya,Madrid,Madrid,Barrio de Salamanca,es,Goya,40.4206893,-3.6713352,False,https://www.idealista.com/inmueble/90671561/,3913,False,renew,False,1.0,3988,"{'subtitle': 'Goya, Madrid', 'title': 'Piso'}",True,False,False,False,False,,,,,34.0,3.0,3-4,Ibiza,Retiro
93653065,https://img3.idealista.com/blur/WEB_LISTING/0/id.pro.es.image.master/26/49/1a/873188455.jpg,3598-00000,32,1,440000,flat,sale,74.0,True,2,1,barrio Arapiles,Madrid,Madrid,Chamberí,es,Arapiles,40.4340852,-3.7122409,False,https://www.idealista.com/inmueble/93653065/,684,False,good,False,1.0,5946,"{'subtitle': 'Arapiles, Madrid', 'title': 'Piso'}",False,False,False,False,False,,,,,71.0,7.0,7-1,Gaztambide,Chamberí
93573501,https://img3.idealista.com/blur/WEB_LISTING/0/id.pro.es.image.master/fa/d1/d1/874379480.jpg,W-02LHJZ,48,,2580000,chalet,sale,555.0,False,6,6,Encinar de los Reyes,Madrid,La Moraleja,Encinar de los Reyes,es,,40.5033117,-3.6304764,False,https://www.idealista.com/inmueble/93573501/,9736,False,good,False,,4649,"{'subtitle': 'Encinar de los Reyes, La Moraleja', 'title': 'Casa independiente'}",False,False,False,False,False,,independantHouse,True,True,166.0,16.0,16-6,Valdefuentes,Hortaleza
93525184,https://img3.idealista.com/blur/WEB_LISTING/0/id.pro.es.image.master/e5/da/d3/864912886.jpg,THSV196,43,4,1300000,flat,sale,172.0,True,2,2,barrio Chueca-Justicia,Madrid,Madrid,Centro,es,Chueca-Justicia,40.4250645,-3.6952365,False,https://www.idealista.com/inmueble/93525184/,2078,False,good,False,1.0,7558,"{'subtitle': 'Chueca-Justicia, Madrid', 'title': 'Piso'}",True,False,False,False,False,,,,,14.0,1.0,1-4,Justicia,Centro
93097833,https://img3.idealista.com/blur/WEB_LISTING/0/id.pro.es.image.master/6b/51/5b/857196000.jpg,3V0020,39,8,1060000,flat,sale,240.0,False,3,1,Paseo de la Castellana,Madrid,Madrid,Tetuán,es,Cuzco-Castillejos,40.4623947,-3.6893903,False,https://www.idealista.com/inmueble/93097833/,3039,False,good,False,0.0,4417,"{'subtitle': 'Cuzco-Castillejos, Madrid', 'title': 'Piso en Paseo de la Castellana'}",False,False,False,False,False,,,,,55.0,5.0,5-5,Nueva España,Chamartín
92502534,https://img3.idealista.com/blur/WEB_LISTING/0/id.pro.es.image.master/b3/04/66/841195159.jpg,THSV191,57,4,1975000,flat,sale,267.0,True,3,3,barrio Castellana,Madrid,Madrid,Barrio de Salamanca,es,Castellana,40.4350934,-3.6844166,False,https://www.idealista.com/inmueble/92502534/,2232,False,good,False,1.0,7397,"{'subtitle': 'Castellana, Madrid', 'title': 'Piso'}",True,False,False,False,False,,,True,True,46.0,4.0,4-6,Castellana,Salamanca
93619166,https://img3.idealista.com/blur/WEB_LISTING/0/id.pro.es.image.master/5f/3c/f3/867768557.jpg,,42,6,610000,flat,sale,152.0,True,4,2,"Calle de Francisco Silvela, 56",Madrid,Madrid,Barrio de Salamanca,es,Guindalera,40.4351318,-3.6746886,True,https://www.idealista.com/inmueble/93619166/,3036,True,renew,False,1.0,4013,"{'subtitle': 'Guindalera, Madrid', 'title': 'Piso en Calle de Francisco Silvela, 56'}",False,False,False,False,False,,,,,44.0,4.0,4-4,Guindalera,Salamanca
93493367,https://img3.idealista.com/blur/WEB_LISTING/0/id.pro.es.image.master/4f/3f/76/864082593.jpg,COM705,16,5,105000,flat,sale,60.0,False,2,1,Calle Eduardo Morales,Madrid,Madrid,Carabanchel,es,Vista Alegre,40.3862585,-3.7380345,False,https://www.idealista.com/inmueble/93493367/,6429,False,good,False,,1750,"{'subtitle': 'Vista Alegre, Madrid', 'title': 'Piso en Calle Eduardo Morales'}",False,False,False,False,False,,,,,114.0,11.0,11-4,Vista Alegre,Carabanchel
93296807,https://img3.idealista.com/blur/WEB_LISTING/0/id.pro.es.image.master/7a/f6/fd/859359809.jpg,ANG-INV.136,16,bj,630000,flat,sale,129.0,False,2,2,Calle del Doctor Castelo,Madrid,Madrid,Retiro,es,Ibiza,40.4184371,-3.6733996,False,https://www.idealista.com/inmueble/93296807/,3917,False,good,False,1.0,4884,"{'subtitle': 'Ibiza, Madrid', 'title': 'Piso en Calle del Doctor Castelo'}",True,False,True,False,False,,,,,34.0,3.0,3-4,Ibiza,Retiro
90981353,https://img3.idealista.com/blur/WEB_LISTING/0/id.pro.es.image.master/88/2f/cb/804038568.jpg,22000601,18,4,325000,flat,sale,79.0,True,1,1,"Calle Monasterio de El Paular, 152",Madrid,Madrid,Fuencarral,es,Montecarmelo,40.5045712,-3.7003744,True,https://www.idealista.com/inmueble/90981353/,7225,False,good,False,1.0,4114,"{'subtitle': 'Montecarmelo, Madrid', 'title': 'Piso en Calle Monasterio de El Paular, 152'}",False,False,False,False,False,,,True,True,88.0,8.0,8-8,El Goloso,Fuencarral - El Pardo
92808208,https://img3.idealista.com/blur/WEB_LISTING/0/id.pro.es.image.master/06/ab/5e/848609545.jpg,,19,3,1195000,flat,sale,200.0,True,4,2,Calle de Hermosilla,Madrid,Madrid,Barrio de Salamanca,es,Goya,40.4252242,-3.6764953,False,https://www.idealista.com/inmueble/92808208/,3277,True,renew,False,1.0,5975,"{'subtitle': 'Goya, Madrid', 'title': 'Piso en Calle de Hermosilla'}",True,False,False,False,False,,,True,False,42.0,4.0,4-2,Goya,Salamanca
92550173,https://img3.idealista.com/blur/WEB_LISTING/0/id.pro.es.image.master/2f/1f/72/842427847.jpg,1301536,24,bj,146000,flat,sale,90.0,True,2,2,Calle de Puentelarra,Madrid,Madrid,Villa de Vallecas,es,Santa Eugenia,40.3779481,-3.6086546,False,https://www.idealista.com/inmueble/92550173/,11010,False,good,False,0.0,1622,"{'subtitle': 'Santa Eugenia, Madrid', 'title': 'Piso en Calle de Puentelarra'}",False,False,False,False,False,,,,,182.0,18.0,18-2,Santa Eugenia,Villa de Vallecas
92525063,https://img3.idealista.com/blur/WEB_LISTING/0/id.pro.es.image.master/dc/7c/bc/841764660.jpg,PN010121,23,3,254000,flat,sale,94.0,True,3,2,Calle de Gutierre de Cetina,Madrid,Madrid,Ciudad Lineal,es,Pueblo Nuevo,40.4295217,-3.6409161,False,https://www.idealista.com/inmueble/92525063/,5961,False,good,False,1.0,2702,"{'subtitle': 'Pueblo Nuevo, Madrid', 'title': 'Piso en Calle de Gutierre de Cetina'}",False,False,False,False,False,,,,,152.0,15.0,15-2,Pueblo Nuevo,Ciudad Lineal
91295471,https://img3.idealista.com/blur/WEB_LISTING/0/id.pro.es.image.master/da/e6/fe/811299432.jpg,1301523,26,3,279000,flat,sale,102.0,True,4,2,Calle Poza de la Sal,Madrid,Madrid,Villa de Vallecas,es,Santa Eugenia,40.3802468,-3.6023586,False,https://www.idealista.com/inmueble/91295471/,11277,False,good,False,1.0,2735,"{'subtitle': 'Santa Eugenia, Madrid', 'title': 'Piso en Calle Poza de la Sal'}",False,False,True,False,False,,,True,True,182.0,18.0,18-2,Santa Eugenia,Villa de Vallecas
90981520,https://img3.idealista.com/blur/WEB_LISTING/0/id.pro.es.image.master/13/b5/de/804042551.jpg,22000601,18,1,385000,flat,sale,96.0,True,2,2,"Avenida Monasterio de El Paular, 152",Madrid,Madrid,Fuencarral,es,Montecarmelo,40.5045712,-3.7003744,True,https://www.idealista.com/inmueble/90981520/,7225,False,good,False,1.0,4010,"{'subtitle': 'Montecarmelo, Madrid', 'title': 'Piso en Avenida Monasterio de El Paular, 152'}",False,False,False,False,False,,,True,True,88.0,8.0,8-8,El Goloso,Fuencarral - El Pardo
90981153,https://img3.idealista.com/blur/WEB_LISTING/0/id.pro.es.image.master/1f/99/0b/804034109.jpg,22000601,19,3,391000,flat,sale,99.0,True,2,2,"Calle Monasterio de El Paular, 152",Madrid,Madrid,Fuencarral,es,Montecarmelo,40.5045712,-3.7003744,True,https://www.idealista.com/inmueble/90981153/,7225,False,good,False,1.0,3949,"{'subtitle': 'Montecarmelo, Madrid', 'title': 'Piso en Calle Monasterio de El Paular, 152'}",False,False,False,False,False,,,True,True,88.0,8.0,8-8,El Goloso,Fuencarral - El Pardo
90981041,https://img3.idealista.com/blur/WEB_LISTING/0/id.pro.es.image.master/6e/19/09/804032510.jpg,22000601,19,4,391000,flat,sale,91.0,True,2,2,"Calle Monasterio de El Paular, 152",Madrid,Madrid,Fuencarral,es,Montecarmelo,40.5045712,-3.7003744,True,https://www.idealista.com/inmueble/90981041/,7225,False,good,False,1.0,4297,"{'subtitle': 'Montecarmelo, Madrid', 'title': 'Piso en Calle Monasterio de El Paular, 152'}",False,False,False,False,False,,,True,True,88.0,8.0,8-8,El Goloso,Fuencarral - El Pardo
89443108,https://img3.idealista.com/blur/WEB_LISTING/0/id.pro.es.image.master/e0/5a/38/771554562.jpg,POZ23850,39,,1445000,chalet,sale,400.0,False,5,5,barrio Aravaca,Madrid,Madrid,Moncloa,es,Aravaca,40.4588719,-3.7918635,False,https://www.idealista.com/inmueble/89443108/,7237,False,good,False,,3613,"{'subtitle': 'Aravaca, Madrid', 'title': 'Chalet adosado'}",False,False,False,False,False,,terracedHouse,True,True,97.0,9.0,9-7,Aravaca,Moncloa - Aravaca
88846005,https://img3.idealista.com/blur/WEB_LISTING/0/id.pro.es.image.master/dc/4d/e5/758351219.jpg,PN050220,30,3,220000,flat,sale,72.0,True,2,1,Emilio Ferrari,Madrid,Madrid,Ciudad Lineal,es,Pueblo Nuevo,40.4319505,-3.6433113,False,https://www.idealista.com/inmueble/88846005/,5714,False,good,False,0.0,3056,"{'subtitle': 'Pueblo Nuevo, Madrid', 'title': 'Piso en Emilio Ferrari'}",False,False,False,False,False,,,,,152.0,15.0,15-2,Pueblo Nuevo,Ciudad Lineal
93751493,https://img3.idealista.com/blur/WEB_LISTING/0/id.pro.es.image.master/5f/c6/1e/870926804.jpg,1301564,35,1,238500,flat,sale,86.0,True,2,2,Calle Cocherón de la Villa,Madrid,Madrid,Puente de Vallecas,es,Palomeras sureste,40.382575,-3.6313601,False,https://www.idealista.com/inmueble/93751493/,9224,False,good,False,1.0,2773,"{'subtitle': 'Palomeras sureste, Madrid', 'title': 'Piso en Calle Cocherón de la Villa'}",False,False,True,False,False,,,True,True,134.0,13.0,13-4,Palomeras Sureste,Puente de Vallecas
93660926,https://img3.idealista.com/blur/WEB_LISTING/0/id.pro.es.image.master/96/7f/cc/873121783.jpg,1301561,23,2,180000,flat,sale,113.0,True,3,2,Travesía del Puerto de las Pilas,Madrid,Madrid,Villa de Vallecas,es,Casco Histórico de Vallecas,40.3798224,-3.6238972,False,https://www.idealista.com/inmueble/93660926/,9894,False,good,False,1.0,1593,"{'subtitle': 'Casco Histórico de Vallecas, Madrid', 'title': 'Piso en Travesía del Puerto de las Pilas'}",False,False,True,False,False,,,,,181.0,18.0,18-1,Casco Histórico de Vallecas,Villa de Vallecas
93546750,https://img3.idealista.com/blur/WEB_LISTING/0/id.pro.es.image.master/e5/b2/8b/869569264.jpg,IE07-CaVíaLusitana3,26,2,145000,flat,sale,98.0,True,3,2,Via Lusitana,Madrid,Madrid,Carabanchel,es,Abrantes,40.3756392,-3.7332035,False,https://www.idealista.com/inmueble/93546750/,7421,False,renew,False,1.0,1480,"{'subtitle': 'Abrantes, Madrid', 'title': 'Piso en Via Lusitana'}",False,False,True,False,False,,,,,117.0,11.0,11-7,Abrantes,Carabanchel
93537888,https://img3.idealista.com/blur/WEB_LISTING/0/id.pro.es.image.master/f4/3b/58/865234849.jpg,ANG-INV.132,23,6,850000,flat,sale,165.0,True,2,2,Calle de Orense,Madrid,Madrid,Tetuán,es,Cuzco-Castillejos,40.4574106,-3.6938658,False,https://www.idealista.com/inmueble/93537888/,2368,False,good,False,1.0,5152,"{'subtitle': 'Cuzco-Castillejos, Madrid', 'title': 'Piso en Calle de Orense'}",False,False,False,False,False,,,True,True,63.0,6.0,6-3,Castillejos,Tetuán
91420882,https://img3.idealista.com/blur/WEB_LISTING/0/id.pro.es.image.master/38/dd/b9/814160638.jpg,VO2017,33,11,350000,flat,sale,117.0,True,4,2,Calle Cumare,Madrid,Madrid,Hortaleza,es,Pinar del Rey,40.4694796,-3.6336279,False,https://www.idealista.com/inmueble/91420882/,7245,False,good,False,1.0,2991,"{'subtitle': 'Pinar del Rey, Madrid', 'title': 'Piso en Calle Cumare'}",False,False,False,False,False,,,,,164.0,16.0,16-4,Pinar del Rey,Hortaleza
93812955,https://img3.idealista.com/blur/WEB_LISTING/0/id.pro.es.image.master/06/75/7e/872343013.jpg,ID1170426,14,bj,109000,flat,sale,45.0,True,2,1,Calle Zumel,Madrid,Madrid,San Blas,es,Simancas,40.4308194,-3.6263656,False,https://www.idealista.com/inmueble/93812955/,7151,False,good,False,1.0,2422,"{'subtitle': 'Simancas, Madrid', 'title': 'Piso en Calle Zumel'}",False,False,False,False,False,,,,,201.0,20.0,20-1,Simancas,San Blas - Canillejas
93680670,https://img3.idealista.com/blur/WEB_LISTING/0/id.pro.es.image.master/7a/6f/91/869038152.jpg,PH165,34,,900000,chalet,sale,264.0,False,4,3,Calle de Eduardo Mazón,Madrid,Madrid,Hortaleza,es,Palomas,40.4513712,-3.6137729,False,https://www.idealista.com/inmueble/93680670/,8240,False,good,False,,3409,"{'subtitle': 'Palomas, Madrid', 'title': 'Chalet pareado en Calle de Eduardo Mazón'}",False,False,False,False,False,,semidetachedHouse,True,True,161.0,16.0,16-1,Palomas,Hortaleza
93741129,https://img3.idealista.com/blur/WEB_LISTING/0/id.pro.es.image.master/6f/ea/36/870644842.jpg,90037,17,3,499000,flat,sale,100.0,True,3,2,Calle de Jorge Juan,Madrid,Madrid,Barrio de Salamanca,es,Fuente del Berro,40.4239343,-3.6658759,False,https://www.idealista.com/inmueble/93741129/,4139,False,good,False,1.0,4990,"{'subtitle': 'Fuente del Berro, Madrid', 'title': 'Piso en Calle de Jorge Juan'}",True,False,False,False,False,,,,,43.0,4.0,4-3,Fuente del Berro,Salamanca
92963430,https://img3.idealista.com/blur/WEB_LISTING/0/id.pro.es.image.master/fd/c8/76/852141048.jpg,MV158942,34,4,750000,flat,sale,200.0,False,5,2,Calle de guzman el bueno,Madrid,Madrid,Chamberí,es,Gaztambide,40.4369111,-3.7134925,False,https://www.idealista.com/inmueble/92963430/,453,True,renew,False,1.0,3750,"{'subtitle': 'Gaztambide, Madrid', 'title': 'Piso en Calle de guzman el bueno'}",True,True,False,False,False,,,,,71.0,7.0,7-1,Gaztambide,Chamberí
92798067,https://img3.idealista.com/blur/WEB_LISTING/0/id.pro.es.image.master/c1/94/29/849878694.jpg,as158388,35,6,1895000,flat,sale,164.0,True,3,4,Calle de Núñez de Balboa,Madrid,Madrid,Barrio de Salamanca,es,Recoletos,40.4271467,-3.6832156,False,https://www.idealista.com/inmueble/92798067/,2679,True,good,False,1.0,11555,"{'subtitle': 'Recoletos, Madrid', 'title': 'Piso en Calle de Núñez de Balboa'}",True,True,False,False,False,,,,,41.0,4.0,4-1,Recoletos,Salamanca
92788254,https://img3.idealista.com/blur/WEB_LISTING/0/id.pro.es.image.master/ac/19/3f/848163163.jpg,34464,71,5,255900,flat,sale,125.0,True,3,2,"Calle del Castillo de Uclés, 51",Madrid,Madrid,San Blas,es,Simancas,40.432476,-3.6233806,True,https://www.idealista.com/inmueble/92788254/,7378,True,good,False,1.0,2047,"{'subtitle': 'Simancas, Madrid', 'title': 'Piso en Calle del Castillo de Uclés, 51'}",True,True,True,False,False,,,,,201.0,20.0,20-1,Simancas,San Blas - Canillejas
92686765,https://img3.idealista.com/blur/WEB_LISTING/0/id.pro.es.image.master/12/ff/75/846176895.jpg,ag157868,29,1,1550000,flat,sale,211.0,True,4,4,Calle del Príncipe de Vergara,Madrid,Madrid,Barrio de Salamanca,es,Recoletos,40.4281236,-3.6819286,False,https://www.idealista.com/inmueble/92686765/,2718,True,good,False,1.0,7346,"{'subtitle': 'Recoletos, Madrid', 'title': 'Piso en Calle del Príncipe de Vergara'}",True,True,False,False,False,,,,,41.0,4.0,4-1,Recoletos,Salamanca
92693468,https://img3.idealista.com/blur/WEB_LISTING/0/id.pro.es.image.master/7d/15/3b/845848679.jpg,BS157993,56,bj,380000,flat,sale,66.0,False,2,2,Calle de Zurbano,Madrid,Madrid,Chamberí,es,Nuevos Ministerios-Ríos Rosas,40.4382354,-3.6941107,False,https://www.idealista.com/inmueble/92693468/,1358,True,good,False,1.0,5758,"{'subtitle': 'Nuevos Ministerios-Ríos Rosas, Madrid', 'title': 'Piso en Calle de Zurbano'}",True,True,False,False,False,,,,,75.0,7.0,7-5,Rios Rosas,Chamberí
92638280,https://img3.idealista.com/blur/WEB_LISTING/0/id.pro.es.image.master/f3/3f/f5/846111995.jpg,MIV01812,49,1,870000,flat,sale,233.0,True,5,4,barrio Mirasierra,Madrid,Madrid,Fuencarral,es,Mirasierra,40.4949004,-3.7132398,False,https://www.idealista.com/inmueble/92638280/,6110,True,good,False,1.0,3734,"{'subtitle': 'Mirasierra, Madrid', 'title': 'Piso'}",True,True,False,False,False,,,True,True,87.0,8.0,8-7,Mirasierra,Fuencarral - El Pardo
92485793,https://img3.idealista.com/blur/WEB_LISTING/0/id.pro.es.image.master/a2/62/e6/840909410.jpg,BHHS-002616,45,,1290000,chalet,sale,184.0,False,4,2,barrio Bernabéu-Hispanoamérica,Madrid,Madrid,Chamartín,es,Bernabéu-Hispanoamérica,40.4570577,-3.6643445,False,https://www.idealista.com/inmueble/92485793/,4303,True,renew,False,,7011,"{'subtitle': 'Bernabéu-Hispanoamérica, Madrid', 'title': 'Chalet'}",True,True,True,False,False,,,True,True,54.0,5.0,5-4,Hispanoamérica,Chamartín
92420478,https://img3.idealista.com/blur/WEB_LISTING/0/id.pro.es.image.master/0b/60/10/839591185.jpg,JL 154969,33,2,395000,flat,sale,68.0,True,2,1,Calle san isidro labrador,Madrid,Madrid,Centro,es,Palacio,40.4096172,-3.7142053,False,https://www.idealista.com/inmueble/92420478/,3396,True,good,False,0.0,5809,"{'subtitle': 'Palacio, Madrid', 'title': 'Piso en Calle san isidro labrador'}",True,True,False,False,False,,,,,11.0,1.0,1-1,Palacio,Centro
92225406,https://img3.idealista.com/blur/WEB_LISTING/0/id.pro.es.image.master/5d/7b/a2/836961304.jpg,es157095,34,4,520000,flat,sale,92.0,True,2,2,Calle de Ayala,Madrid,Madrid,Barrio de Salamanca,es,Goya,40.4274652,-3.6703522,False,https://www.idealista.com/inmueble/92225406/,3633,True,good,False,1.0,5652,"{'subtitle': 'Goya, Madrid', 'title': 'Piso en Calle de Ayala'}",True,True,False,False,False,,,,,42.0,4.0,4-2,Goya,Salamanca
92194176,https://img3.idealista.com/blur/WEB_LISTING/0/id.pro.es.image.master/eb/48/91/833250333.jpg,VM2012033,31,bj,455000,flat,sale,147.0,True,3,3,Calle de Hermosilla,Madrid,Madrid,Barrio de Salamanca,es,Fuente del Berro,40.4244257,-3.6666699,False,https://www.idealista.com/inmueble/92194176/,4055,True,good,False,1.0,3095,"{'subtitle': 'Fuente del Berro, Madrid', 'title': 'Piso en Calle de Hermosilla'}",True,True,False,False,False,,,,,43.0,4.0,4-3,Fuente del Berro,Salamanca
92037867,https://img3.idealista.com/blur/WEB_LISTING/0/id.pro.es.image.master/bf/de/c0/831162067.jpg,al155450,48,6,640000,flat,sale,181.0,True,5,2,alcalá,Madrid,Madrid,Barrio de Salamanca,es,Fuente del Berro,40.4282311,-3.6653222,False,https://www.idealista.com/inmueble/92037867/,4001,True,renew,False,1.0,3536,"{'subtitle': 'Fuente del Berro, Madrid', 'title': 'Piso en alcalá'}",True,True,False,False,False,,,,,43.0,4.0,4-3,Fuente del Berro,Salamanca
92005894,https://img3.idealista.com/blur/WEB_LISTING/0/id.pro.es.image.master/a4/05/cf/828521122.jpg,,31,bj,585000,flat,sale,183.0,False,2,2,Calle FLORA,Madrid,Madrid,Centro,es,Sol,40.4195985,-3.7093094,False,https://www.idealista.com/inmueble/92005894/,2269,True,good,False,0.0,3197,"{'subtitle': 'Sol, Madrid', 'title': 'Piso en Calle FLORA'}",True,True,False,False,False,,,,,11.0,1.0,1-1,Palacio,Centro
91837687,https://img3.idealista.com/blur/WEB_LISTING/0/id.pro.es.image.master/7a/86/55/831166945.jpg,al153874,39,1,490000,flat,sale,78.0,False,3,2,Calle de Padilla,Madrid,Madrid,Barrio de Salamanca,es,Lista,40.4323814,-3.6792463,False,https://www.idealista.com/inmueble/91837687/,2737,True,renew,False,1.0,6282,"{'subtitle': 'Lista, Madrid', 'title': 'Piso en Calle de Padilla'}",True,True,False,False,False,,,,,45.0,4.0,4-5,Lista,Salamanca
91831119,https://img3.idealista.com/blur/WEB_LISTING/0/id.pro.es.image.master/90/f2/3c/824351321.jpg,ag155544,41,3,1400000,flat,sale,184.0,True,3,4,Calle de Diego de León,Madrid,Madrid,Barrio de Salamanca,es,Lista,40.436526,-3.6771628,False,https://www.idealista.com/inmueble/91831119/,2805,True,good,False,1.0,7609,"{'subtitle': 'Lista, Madrid', 'title': 'Piso en Calle de Diego de León'}",True,True,False,False,False,,,,,45.0,4.0,4-5,Lista,Salamanca
93591030,https://img3.idealista.com/blur/WEB_LISTING/0/id.pro.es.image.master/18/ea/27/866578088.jpg,JU210408AQ,20,bj,185000,flat,sale,95.0,True,3,1,Avenida Quinta,Madrid,Madrid,San Blas,es,Rejas,40.4493737,-3.5981258,False,https://www.idealista.com/inmueble/93591030/,9523,False,good,False,1.0,1947,"{'subtitle': 'Rejas, Madrid', 'title': 'Piso en Avenida Quinta'}",False,False,False,False,False,,,,,206.0,20.0,20-6,Rejas,San Blas - Canillejas
93558549,https://img3.idealista.com/blur/WEB_LISTING/0/id.pro.es.image.master/04/17/68/873113733.jpg,MV00080,43,4,250000,flat,sale,117.0,False,3,2,Calle del Marqués de Jura Real,Madrid,Madrid,Carabanchel,es,Comillas,40.3899323,-3.7104931,False,https://www.idealista.com/inmueble/93558549/,5567,True,good,False,1.0,2137,"{'subtitle': 'Comillas, Madrid', 'title': 'Piso en Calle del Marqués de Jura Real'}",False,False,False,False,False,,,,,125.0,12.0,12-5,Moscardó,Usera
93343011,https://img3.idealista.com/blur/WEB_LISTING/0/id.pro.es.image.master/d3/f8/0d/860448361.jpg,MOP-4017,33,5,650000,flat,sale,119.0,True,2,2,Calle de Ayala,Madrid,Madrid,Barrio de Salamanca,es,Goya,40.4264732,-3.6772768,False,https://www.idealista.com/inmueble/93343011/,3151,False,renew,False,1.0,5462,"{'subtitle': 'Goya, Madrid', 'title': 'Piso en Calle de Ayala'}",False,False,False,False,False,,,,,42.0,4.0,4-2,Goya,Salamanca
93322027,https://img3.idealista.com/blur/WEB_LISTING/0/id.pro.es.image.master/2d/30/fc/859956352.jpg,CNI825,31,2,139900,flat,sale,75.0,True,3,1,Calle Sierra Aitana,Madrid,Madrid,Villa de Vallecas,es,Casco Histórico de Vallecas,40.3744024,-3.6202012,False,https://www.idealista.com/inmueble/93322027/,10535,False,good,False,0.0,1865,"{'subtitle': 'Casco Histórico de Vallecas, Madrid', 'title': 'Piso en Calle Sierra Aitana'}",False,False,False,False,False,,,,,181.0,18.0,18-1,Casco Histórico de Vallecas,Villa de Vallecas
93257583,https://img3.idealista.com/blur/WEB_LISTING/0/id.pro.es.image.master/d2/c3/34/858363660.jpg,,36,2,795000,flat,sale,245.0,True,5,3,Paseo de la Castellana,Madrid,Madrid,Tetuán,es,Ventilla-Almenara,40.4698899,-3.6901476,False,https://www.idealista.com/inmueble/93257583/,3723,False,good,False,1.0,3245,"{'subtitle': 'Ventilla-Almenara, Madrid', 'title': 'Piso en Paseo de la Castellana'}",False,False,False,False,False,,,True,True,64.0,6.0,6-4,Almenara,Tetuán
91533591,https://img3.idealista.com/blur/WEB_LISTING/0/id.pro.es.image.master/c0/2b/d4/816840940.jpg,02V21.SVF,17,2,190000,flat,sale,37.0,False,1,1,"Calle de San Vicente Ferrer, 28",Madrid,Madrid,Centro,es,Malasaña-Universidad,40.4258444,-3.7036316,True,https://www.idealista.com/inmueble/91533591/,1663,False,good,False,0.0,5135,"{'subtitle': 'Malasaña-Universidad, Madrid', 'title': 'Piso en Calle de San Vicente Ferrer, 28'}",False,False,False,False,False,,,,,15.0,1.0,1-5,Universidad,Centro
91452132,https://img3.idealista.com/blur/WEB_LISTING/0/id.pro.es.image.master/ed/da/2e/852395449.jpg,MON-4147,22,4,319000,penthouse,sale,88.0,True,1,1,Calle JERONIMA LLORENTE,Madrid,Madrid,Tetuán,es,Bellas Vistas,40.4523206,-3.7080938,False,https://www.idealista.com/inmueble/91452132/,1379,False,good,False,1.0,3625,"{'subtitle': 'Bellas Vistas, Madrid', 'title': 'Ático en Calle JERONIMA LLORENTE'}",False,False,False,False,False,,penthouse,,,61.0,6.0,6-1,Bellas Vistas,Tetuán
91233002,https://img3.idealista.com/blur/WEB_LISTING/0/id.pro.es.image.master/cc/6f/ef/847983762.jpg,wcan911samCar,27,1,198000,flat,sale,49.0,True,1,1,Calle de Samaniego,Madrid,Madrid,San Blas,es,Rejas,40.4410768,-3.5817359,False,https://www.idealista.com/inmueble/91233002/,10854,False,good,False,1.0,4041,"{'subtitle': 'Rejas, Madrid', 'title': 'Piso en Calle de Samaniego'}",False,False,True,False,False,,,True,True,205.0,20.0,20-5,Rosas,San Blas - Canillejas
90188449,https://img3.idealista.com/blur/WEB_LISTING/0/id.pro.es.image.master/96/9d/f1/785267391.jpg,11361,64,1,429000,flat,sale,159.0,False,4,2,Avenida del Doctor García Tapia,Madrid,Madrid,Moratalaz,es,Horcajo,40.4068323,-3.6256747,False,https://www.idealista.com/inmueble/90188449/,8034,False,good,False,1.0,2698,"{'subtitle': 'Horcajo, Madrid', 'title': 'Piso en Avenida del Doctor García Tapia'}",False,False,False,False,False,,,True,True,142.0,14.0,14-2,Horcajo,Moratalaz
89806019,https://img3.idealista.com/blur/WEB_LISTING/0/id.pro.es.image.master/e9/53/7e/777004340.jpg,POZ23898,53,,2800000,chalet,sale,1500.0,False,7,7,barrio Somosaguas,Madrid,Pozuelo de Alarcón,Somosaguas,es,Somosaguas,40.4170426,-3.7801402,False,https://www.idealista.com/inmueble/89806019/,6462,False,good,False,,1867,"{'subtitle': 'Somosaguas, Pozuelo de Alarcón', 'title': 'Chalet'}",False,False,False,False,False,,,True,True,91.0,9.0,9-1,Casa de Campo,Moncloa - Aravaca
93807022,https://img3.idealista.com/blur/WEB_LISTING/0/id.pro.es.image.master/1b/2a/7a/872182729.jpg,00100069v,38,2,155000,flat,sale,78.0,True,3,1,barrio Los Ángeles,Madrid,Madrid,Villaverde,es,Los Ángeles,40.3537751,-3.6962338,False,https://www.idealista.com/inmueble/93807022/,9657,True,good,False,1.0,1987,"{'subtitle': 'Los Ángeles, Madrid', 'title': 'Piso'}",False,False,False,False,False,,,,,175.0,17.0,17-5,Los Angeles,Villaverde
93749356,https://img3.idealista.com/blur/WEB_LISTING/0/id.pro.es.image.master/1d/08/9c/870874864.jpg,POZ28740,30,,995000,flat,sale,208.0,True,3,3,barrio Aravaca,Madrid,Madrid,Moncloa,es,Aravaca,40.4593488,-3.79672,False,https://www.idealista.com/inmueble/93749356/,7646,False,good,False,1.0,4784,"{'subtitle': 'Aravaca, Madrid', 'title': 'Piso'}",False,False,False,False,False,,,True,True,97.0,9.0,9-7,Aravaca,Moncloa - Aravaca
93720170,https://img3.idealista.com/blur/WEB_LISTING/0/id.pro.es.image.master/c0/11/20/870119027.jpg,MVB-V1195,13,2,269900,flat,sale,73.0,True,2,2,barrio Valdeacederas,Madrid,Madrid,Tetuán,es,Valdeacederas,40.463576,-3.6993911,False,https://www.idealista.com/inmueble/93720170/,2770,False,good,False,0.0,3697,"{'subtitle': 'Valdeacederas, Madrid', 'title': 'Piso'}",False,False,False,False,False,,,,,65.0,6.0,6-5,Valdeacederas,Tetuán
93705079,https://img3.idealista.com/blur/WEB_LISTING/0/id.pro.es.image.master/e3/ff/e4/869689667.jpg,247843,20,bj,150000,flat,sale,50.0,False,2,1,barrio Marroquina,Madrid,Madrid,Moratalaz,es,Marroquina,40.4101859,-3.6517666,False,https://www.idealista.com/inmueble/93705079/,5940,False,good,False,0.0,3000,"{'subtitle': 'Marroquina, Madrid', 'title': 'Piso'}",True,False,False,False,False,,,,,143.0,14.0,14-3,Marroquina,Moratalaz
93452938,https://img3.idealista.com/blur/WEB_LISTING/0/id.pro.es.image.master/98/b7/4c/865423564.jpg,MAD5175665,29,2.0,998000,flat,sale,210.0,True,4,2,barrio Goya,Madrid,Madrid,Barrio de Salamanca,es,Goya,40.4229041,-3.6768452,False,https://www.idealista.com/inmueble/93452938/,3389,False,renew,False,1.0,4752,"{'subtitle': 'Goya, Madrid', 'title': 'Piso'}",True,False,False,False,False,,,,,42.0,4.0,4-2,Goya,Salamanca
92754709,https://img3.idealista.com/blur/WEB_LISTING/0/id.pro.es.image.master/1d/fe/f8/847418677.jpg,M2025,54,5.0,670000,flat,sale,134.0,True,4,2,barrio Gaztambide,Madrid,Madrid,Chamberí,es,Gaztambide,40.4302905,-3.7133441,False,https://www.idealista.com/inmueble/92754709/,1116,True,good,False,1.0,5000,"{'subtitle': 'Gaztambide, Madrid', 'title': 'Piso'}",True,False,False,False,False,,,,,15.0,1.0,1-5,Universidad,Centro
92507612,https://img3.idealista.com/blur/WEB_LISTING/0/id.pro.es.image.master/97/d2/77/841427509.jpg,M2018,26,3.0,719000,flat,sale,160.0,True,5,3,barrio Argüelles,Madrid,Madrid,Moncloa,es,Argüelles,40.4290677,-3.7190562,False,https://www.idealista.com/inmueble/92507612/,1437,True,good,False,1.0,4494,"{'subtitle': 'Argüelles, Madrid', 'title': 'Piso'}",True,False,False,False,False,,,,,92.0,9.0,9-2,Argüelles,Moncloa - Aravaca
93723097,https://img3.idealista.com/blur/WEB_LISTING/0/id.pro.es.image.master/ec/ef/41/870184954.jpg,M3043,11,1.0,1100000,flat,sale,190.0,True,2,2,barrio Chueca-Justicia,Madrid,Madrid,Centro,es,Chueca-Justicia,40.4239791,-3.6963384,False,https://www.idealista.com/inmueble/93723097/,2123,True,good,False,1.0,5789,"{'subtitle': 'Chueca-Justicia, Madrid', 'title': 'Piso'}",True,False,False,False,False,,,,,14.0,1.0,1-4,Justicia,Centro
92446042,https://img3.idealista.com/blur/WEB_LISTING/0/id.pro.es.image.master/1e/c9/64/855709868.jpg,4700397,24,4.0,1200000,flat,sale,174.0,False,3,3,barrio Ibiza,Madrid,Madrid,Retiro,es,Ibiza,40.4179865,-3.6784787,False,https://www.idealista.com/inmueble/92446042/,3620,False,good,False,1.0,6897,"{'subtitle': 'Ibiza, Madrid', 'title': 'Piso'}",False,False,False,False,False,,,True,True,34.0,3.0,3-4,Ibiza,Retiro
92179380,https://img3.idealista.com/blur/WEB_LISTING/0/id.pro.es.image.master/30/e0/c2/832885196.jpg,000822,32,9.0,1650000,flat,sale,279.0,True,4,4,barrio Nueva España,Madrid,Madrid,Chamartín,es,Nueva España,40.4586119,-3.6838247,False,https://www.idealista.com/inmueble/92179380/,3031,False,good,False,1.0,5914,"{'subtitle': 'Nueva España, Madrid', 'title': 'Piso'}",False,False,False,False,False,,,True,True,54.0,5.0,5-4,Hispanoamérica,Chamartín
92101438,https://img3.idealista.com/blur/WEB_LISTING/0/id.pro.es.image.master/68/e1/08/831793609.jpg,W-02KOP0,88,,725000,flat,sale,167.0,True,4,3,barrio Mirasierra,Madrid,Madrid,Fuencarral,es,Mirasierra,40.4922793,-3.7138888,False,https://www.idealista.com/inmueble/92101438/,5822,False,good,False,1.0,4341,"{'subtitle': 'Mirasierra, Madrid', 'title': 'Piso'}",False,False,False,False,False,,,True,True,87.0,8.0,8-7,Mirasierra,Fuencarral - El Pardo
90484300,https://img3.idealista.com/blur/WEB_LISTING/0/id.pro.es.image.master/ee/d3/d2/833485215.jpg,M00026FV,24,2.0,225000,studio,sale,35.0,True,0,1,barrio Malasaña-Universidad,Madrid,Madrid,Centro,es,Malasaña-Universidad,40.429152,-3.7071661,False,https://www.idealista.com/inmueble/90484300/,1229,False,good,False,1.0,6429,"{'subtitle': 'Malasaña-Universidad, Madrid', 'title': 'Estudio'}",False,False,False,False,False,,studio,,,15.0,1.0,1-5,Universidad,Centro
89756675,https://img3.idealista.com/blur/WEB_LISTING/0/id.pro.es.image.master/f3/74/91/855713415.jpg,3973813,22,,1990000,chalet,sale,450.0,False,5,5,Encinar de los Reyes,Madrid,La Moraleja,Encinar de los Reyes,es,,40.5076487,-3.6400328,False,https://www.idealista.com/inmueble/89756675/,9570,False,renew,False,,4422,"{'subtitle': 'Encinar de los Reyes, La Moraleja', 'title': 'Casa independiente'}",False,False,False,False,False,,independantHouse,,,166.0,16.0,16-6,Valdefuentes,Hortaleza
87689124,https://img3.idealista.com/blur/WEB_LISTING/0/id.pro.es.image.master/ce/14/20/855715690.jpg,3225225,41,4.0,2550000,flat,sale,220.0,True,4,4,barrio Recoletos,Madrid,Madrid,Barrio de Salamanca,es,Recoletos,40.4268456,-3.6854809,False,https://www.idealista.com/inmueble/87689124/,2538,False,good,False,1.0,11591,"{'subtitle': 'Recoletos, Madrid', 'title': 'Piso'}",False,False,False,False,False,,,,,41.0,4.0,4-1,Recoletos,Salamanca
